{
"type": "FeatureCollection",
"name": "estaciones-metro",
"crs": { "type": "name", "properties": { "name": "urn:ogc:def:crs:OGC:1.3:CRS84" } },
"features": [
{ "type": "Feature", "properties": { "id": 0, "geometry": { "type": "Point", "coordinates": [ -99.141558, 19.435960 ] }, "stop_id": 14162.0, "stop_code": null, "stop_name": "Bellas Artes_1_2", "stop_desc": "Metro Línea 2 correspondencia con línea 8.", "stop_lat": 19.43595951, "stop_lon": -99.14155841, "trip_heads": "Cuatro Caminos - Tasqueña", "agency_id": "METRO", "geopoint": "19.43595951,-99.14155841" }, "geometry": { "type": "Point", "coordinates": [ -99.141558, 19.43596 ] } },
{ "type": "Feature", "properties": { "id": 1, "geometry": { "type": "Point", "coordinates": [ -99.115895, 19.448667 ] }, "stop_id": 14181.0, "stop_code": null, "stop_name": "Canal del Norte_1", "stop_desc": "Metro 4", "stop_lat": 19.44866652, "stop_lon": -99.11589503, "trip_heads": "Martín Carrera - Santa Anita", "agency_id": "METRO", "geopoint": "19.44866652,-99.11589503" }, "geometry": { "type": "Point", "coordinates": [ -99.115895, 19.448667 ] } },
{ "type": "Feature", "properties": { "id": 2, "geometry": { "type": "Point", "coordinates": [ -99.152899, 19.446158 ] }, "stop_id": 14170.0, "stop_code": null, "stop_name": "Buenavista_1_4", "stop_desc": "Metro B", "stop_lat": 19.44615757, "stop_lon": -99.15289879, "trip_heads": "Buenavista - Ciudad Azteca", "agency_id": "METRO", "geopoint": "19.44615757,-99.15289879" }, "geometry": { "type": "Point", "coordinates": [ -99.152899, 19.446158 ] } },
{ "type": "Feature", "properties": { "id": 3, "geometry": { "type": "Point", "coordinates": [ -99.105542, 19.482311 ] }, "stop_id": 14197.0, "stop_code": null, "stop_name": "Martín Carrera_1_2", "stop_desc": "Metro Línea 6 correspondencia con línea 4.", "stop_lat": 19.48231101, "stop_lon": -99.10554171, "trip_heads": "Martín Carrera - El Rosario", "agency_id": "METRO", "geopoint": "19.48231101,-99.10554171" }, "geometry": { "type": "Point", "coordinates": [ -99.105542, 19.482311 ] } },
{ "type": "Feature", "properties": { "id": 4, "geometry": { "type": "Point", "coordinates": [ -99.072626, 19.414610 ] }, "stop_id": 14215.0, "stop_code": null, "stop_name": "Pantitlán_1", "stop_desc": "Metro Línea A correspondencia con líneas 1 5 y 9.", "stop_lat": 19.4146103, "stop_lon": -99.07262564, "trip_heads": "La Paz - Pantitlán", "agency_id": "METRO", "geopoint": "19.4146103,-99.07262564" }, "geometry": { "type": "Point", "coordinates": [ -99.072626, 19.41461 ] } },
{ "type": "Feature", "properties": { "id": 5, "geometry": { "type": "Point", "coordinates": [ -99.141301, 19.369768 ] }, "stop_id": 14085.0, "stop_code": null, "stop_name": "Portales", "stop_desc": "Metro 2", "stop_lat": 19.36976784, "stop_lon": -99.14130092000001, "trip_heads": "Cuatro Caminos - Tasqueña", "agency_id": "METRO", "geopoint": "19.36976784,-99.14130092" }, "geometry": { "type": "Point", "coordinates": [ -99.141301, 19.369768 ] } },
{ "type": "Feature", "properties": { "id": 6, "geometry": { "type": "Point", "coordinates": [ -99.041716, 19.500961 ] }, "stop_id": 14221.0, "stop_code": null, "stop_name": "Múzquiz", "stop_desc": "Metro B", "stop_lat": 19.50096117, "stop_lon": -99.04171586, "trip_heads": "Buenavista - Ciudad Azteca", "agency_id": "METRO", "geopoint": "19.50096117,-99.04171586" }, "geometry": { "type": "Point", "coordinates": [ -99.041716, 19.500961 ] } },
{ "type": "Feature", "properties": { "id": 7, "geometry": { "type": "Point", "coordinates": [ -99.046211, 19.299398 ] }, "stop_id": 14230.0, "stop_code": null, "stop_name": "Nopalera", "stop_desc": "Metro 12", "stop_lat": 19.29939771, "stop_lon": -99.04621124000001, "trip_heads": "Tláhuac - Mixcoac", "agency_id": "METRO", "geopoint": "19.29939771,-99.04621124" }, "geometry": { "type": "Point", "coordinates": [ -99.046211, 19.299398 ] } },
{ "type": "Feature", "properties": { "id": 8, "geometry": { "type": "Point", "coordinates": [ -99.191383, 19.411291 ] }, "stop_id": 14116.0, "stop_code": null, "stop_name": "Constituyentes_1_2", "stop_desc": "Metro 7", "stop_lat": 19.41129131, "stop_lon": -99.19138312, "trip_heads": "Barranca del Muerto - El Rosario", "agency_id": "METRO", "geopoint": "19.41129131,-99.19138312" }, "geometry": { "type": "Point", "coordinates": [ -99.191383, 19.411291 ] } },
{ "type": "Feature", "properties": { "id": 9, "geometry": { "type": "Point", "coordinates": [ -99.087095, 19.423251 ] }, "stop_id": 14213.0, "stop_code": null, "stop_name": "Hangares", "stop_desc": "Metro 5", "stop_lat": 19.423251, "stop_lon": -99.087095, "trip_heads": "Pantitlán - Politécnico", "agency_id": "METRO", "geopoint": "19.423251,-99.087095" }, "geometry": { "type": "Point", "coordinates": [ -99.087095, 19.423251 ] } },
{ "type": "Feature", "properties": { "id": 10, "geometry": { "type": "Point", "coordinates": [ -99.121206, 19.404258 ] }, "stop_id": 14178.0, "stop_code": null, "stop_name": "Santa Anita_1", "stop_desc": "Metro Línea 4 correspondencia con líneas 8.", "stop_lat": 19.40425847, "stop_lon": -99.12120581000001, "trip_heads": "Martín Carrera - Santa Anita", "agency_id": "METRO", "geopoint": "19.40425847,-99.12120581" }, "geometry": { "type": "Point", "coordinates": [ -99.121206, 19.404258 ] } },
{ "type": "Feature", "properties": { "id": 11, "geometry": { "type": "Point", "coordinates": [ -99.195932, 19.494488 ] }, "stop_id": 14128.0, "stop_code": null, "stop_name": "Tezozómoc", "stop_desc": "Metro 6", "stop_lat": 19.49448847, "stop_lon": -99.19593215, "trip_heads": "Martín Carrera - El Rosario", "agency_id": "METRO", "geopoint": "19.49448847,-99.19593215" }, "geometry": { "type": "Point", "coordinates": [ -99.195932, 19.494488 ] } },
{ "type": "Feature", "properties": { "id": 12, "geometry": { "type": "Point", "coordinates": [ -99.125766, 19.483585 ] }, "stop_id": 14190.0, "stop_code": null, "stop_name": "Deportivo 18 de Marzo_1_4", "stop_desc": "Metro Línea 6 correspondencia con línea 3.", "stop_lat": 19.48358544, "stop_lon": -99.12576556, "trip_heads": "Martín Carrera - El Rosario", "agency_id": "METRO", "geopoint": "19.48358544,-99.12576556" }, "geometry": { "type": "Point", "coordinates": [ -99.125766, 19.483585 ] } },
{ "type": "Feature", "properties": { "id": 13, "geometry": { "type": "Point", "coordinates": [ -99.106325, 19.352641 ] }, "stop_id": 42427.0, "stop_code": null, "stop_name": "Atlalilco_1", "stop_desc": "Metro Línea 12 correspondencia con línea 8.", "stop_lat": 19.35264126, "stop_lon": -99.10632491, "trip_heads": "Tláhuac - Mixcoac", "agency_id": "METRO", "geopoint": "19.35264126,-99.10632491" }, "geometry": { "type": "Point", "coordinates": [ -99.106325, 19.352641 ] } },
{ "type": "Feature", "properties": { "id": 14, "geometry": { "type": "Point", "coordinates": [ -99.108943, 19.338874 ] }, "stop_id": 14237.0, "stop_code": null, "stop_name": "Culhuacán", "stop_desc": "Metro 12", "stop_lat": 19.33887391, "stop_lon": -99.10894275, "trip_heads": "Tláhuac - Mixcoac", "agency_id": "METRO", "geopoint": "19.33887391,-99.10894275" }, "geometry": { "type": "Point", "coordinates": [ -99.108943, 19.338874 ] } },
{ "type": "Feature", "properties": { "id": 15, "geometry": { "type": "Point", "coordinates": [ -99.188240, 19.402133 ] }, "stop_id": 14054.0, "stop_code": null, "stop_name": "Tacubaya_1", "stop_desc": "Metro Línea 1 correspondencia con línea 7 y línea 9.", "stop_lat": 19.40213338, "stop_lon": -99.18823957, "trip_heads": "Observatorio - Pantitlán", "agency_id": "METRO", "geopoint": "19.40213338,-99.18823957" }, "geometry": { "type": "Point", "coordinates": [ -99.18824, 19.402133 ] } },
{ "type": "Feature", "properties": { "id": 16, "geometry": { "type": "Point", "coordinates": [ -99.121367, 19.403975 ] }, "stop_id": 14064.0, "stop_code": null, "stop_name": "Santa Anita", "stop_desc": "Metro Línea 8 correspondencia con línea 4.", "stop_lat": 19.40397512, "stop_lon": -99.12136674, "trip_heads": "Garibaldi - Constitución de 1917", "agency_id": "METRO", "geopoint": "19.40397512,-99.12136674" }, "geometry": { "type": "Point", "coordinates": [ -99.121367, 19.403975 ] } },
{ "type": "Feature", "properties": { "id": 17, "geometry": { "type": "Point", "coordinates": [ -99.188501, 19.458383 ] }, "stop_id": 14108.0, "stop_code": null, "stop_name": "Tacuba", "stop_desc": "Metro Línea 7 correspondencia con línea 2.", "stop_lat": 19.458383, "stop_lon": -99.188501, "trip_heads": "Barranca del Muerto - El Rosario", "agency_id": "METRO", "geopoint": "19.458383,-99.188501" }, "geometry": { "type": "Point", "coordinates": [ -99.188501, 19.458383 ] } },
{ "type": "Feature", "properties": { "id": 18, "geometry": { "type": "Point", "coordinates": [ -99.046351, 19.490241 ] }, "stop_id": 14222.0, "stop_code": null, "stop_name": "Río de los Remedios_1", "stop_desc": "Metro B", "stop_lat": 19.49024062, "stop_lon": -99.04635072000001, "trip_heads": "Buenavista - Ciudad Azteca", "agency_id": "METRO", "geopoint": "19.49024062,-99.04635072" }, "geometry": { "type": "Point", "coordinates": [ -99.046351, 19.490241 ] } },
{ "type": "Feature", "properties": { "id": 19, "geometry": { "type": "Point", "coordinates": [ -99.118159, 19.481472 ] }, "stop_id": 14191.0, "stop_code": null, "stop_name": "La Villa - Basílica", "stop_desc": "Metro 6", "stop_lat": 19.4814715, "stop_lon": -99.11815882, "trip_heads": "Martín Carrera - El Rosario", "agency_id": "METRO", "geopoint": "19.4814715,-99.11815882" }, "geometry": { "type": "Point", "coordinates": [ -99.118159, 19.481472 ] } },
{ "type": "Feature", "properties": { "id": 20, "geometry": { "type": "Point", "coordinates": [ -99.182070, 19.412900 ] }, "stop_id": 14120.0, "stop_code": null, "stop_name": "Juanacatlán", "stop_desc": "Metro 1", "stop_lat": 19.41290022, "stop_lon": -99.18207049, "trip_heads": "Observatorio - Pantitlán", "agency_id": "METRO", "geopoint": "19.41290022,-99.18207049" }, "geometry": { "type": "Point", "coordinates": [ -99.18207, 19.4129 ] } },
{ "type": "Feature", "properties": { "id": 21, "geometry": { "type": "Point", "coordinates": [ -99.065867, 19.306124 ] }, "stop_id": 14232.0, "stop_code": null, "stop_name": "Tezonco", "stop_desc": "Metro 12", "stop_lat": 19.306124, "stop_lon": -99.065867, "trip_heads": "Tláhuac - Mixcoac", "agency_id": "METRO", "geopoint": "19.306124,-99.065867" }, "geometry": { "type": "Point", "coordinates": [ -99.065867, 19.306124 ] } },
{ "type": "Feature", "properties": { "id": 22, "geometry": { "type": "Point", "coordinates": [ -99.032983, 19.520843 ] }, "stop_id": 14224.0, "stop_code": null, "stop_name": "Olímpica", "stop_desc": "Metro B", "stop_lat": 19.52084286, "stop_lon": -99.03298259, "trip_heads": "Buenavista - Ciudad Azteca", "agency_id": "METRO", "geopoint": "19.52084286,-99.03298259" }, "geometry": { "type": "Point", "coordinates": [ -99.032983, 19.520843 ] } },
{ "type": "Feature", "properties": { "id": 23, "geometry": { "type": "Point", "coordinates": [ -99.186620, 19.384818 ] }, "stop_id": 14084.0, "stop_code": null, "stop_name": "San Antonio", "stop_desc": "Metro 7", "stop_lat": 19.38481791, "stop_lon": -99.18661952, "trip_heads": "Barranca del Muerto - El Rosario", "agency_id": "METRO", "geopoint": "19.38481791,-99.18661952" }, "geometry": { "type": "Point", "coordinates": [ -99.18662, 19.384818 ] } },
{ "type": "Feature", "properties": { "id": 24, "geometry": { "type": "Point", "coordinates": [ -99.174078, 19.324336 ] }, "stop_id": 14076.0, "stop_code": null, "stop_name": "Universidad", "stop_desc": "Metro 3", "stop_lat": 19.32433595, "stop_lon": -99.17407751, "trip_heads": "Indios Verdes - Universidad", "agency_id": "METRO", "geopoint": "19.32433595,-99.17407751" }, "geometry": { "type": "Point", "coordinates": [ -99.174078, 19.324336 ] } },
{ "type": "Feature", "properties": { "id": 25, "geometry": { "type": "Point", "coordinates": [ -99.156171, 19.396041 ] }, "stop_id": 14059.0, "stop_code": null, "stop_name": "Etiopía \/ Plaza de la Transpatencia", "stop_desc": "Metro 3", "stop_lat": 19.39604129, "stop_lon": -99.15617108, "trip_heads": "Indios Verdes - Universidad", "agency_id": "METRO", "geopoint": "19.39604129,-99.15617108" }, "geometry": { "type": "Point", "coordinates": [ -99.156171, 19.396041 ] } },
{ "type": "Feature", "properties": { "id": 26, "geometry": { "type": "Point", "coordinates": [ -99.109318, 19.364494 ] }, "stop_id": 14088.0, "stop_code": null, "stop_name": "Escuadrón 201", "stop_desc": "Metro 8", "stop_lat": 19.36449442, "stop_lon": -99.10931826, "trip_heads": "Garibaldi - Constitución de 1917", "agency_id": "METRO", "geopoint": "19.36449442,-99.10931826" }, "geometry": { "type": "Point", "coordinates": [ -99.109318, 19.364494 ] } },
{ "type": "Feature", "properties": { "id": 27, "geometry": { "type": "Point", "coordinates": [ -99.079170, 19.450771 ] }, "stop_id": 14220.0, "stop_code": null, "stop_name": "Deportivo Oceanía", "stop_desc": "Metro B", "stop_lat": 19.45077077, "stop_lon": -99.07917023, "trip_heads": "Buenavista - Ciudad Azteca", "agency_id": "METRO", "geopoint": "19.45077077,-99.07917023" }, "geometry": { "type": "Point", "coordinates": [ -99.07917, 19.450771 ] } },
{ "type": "Feature", "properties": { "id": 28, "geometry": { "type": "Point", "coordinates": [ -99.090704, 19.416088 ] }, "stop_id": 14052.0, "stop_code": null, "stop_name": "Gómez Farías", "stop_desc": "Metro 1", "stop_lat": 19.41608763, "stop_lon": -99.09070373, "trip_heads": "Observatorio - Pantitlán", "agency_id": "METRO", "geopoint": "19.41608763,-99.09070373" }, "geometry": { "type": "Point", "coordinates": [ -99.090704, 19.416088 ] } },
{ "type": "Feature", "properties": { "id": 29, "geometry": { "type": "Point", "coordinates": [ -99.147717, 19.433369 ] }, "stop_id": 14138.0, "stop_code": null, "stop_name": "Juárez_1_3", "stop_desc": "Metro 3", "stop_lat": 19.43336942, "stop_lon": -99.14771676, "trip_heads": "Indios Verdes - Universidad", "agency_id": "METRO", "geopoint": "19.43336942,-99.14771676" }, "geometry": { "type": "Point", "coordinates": [ -99.147717, 19.433369 ] } },
{ "type": "Feature", "properties": { "id": 30, "geometry": { "type": "Point", "coordinates": [ -99.135743, 19.408539 ] }, "stop_id": 14155.0, "stop_code": null, "stop_name": "Chabacano_1", "stop_desc": "Metro Línea 8 correspondencia con línea 2 y línea 9.", "stop_lat": 19.40853892, "stop_lon": -99.13574338, "trip_heads": "Garibaldi - Constitución de 1917", "agency_id": "METRO", "geopoint": "19.40853892,-99.13574338" }, "geometry": { "type": "Point", "coordinates": [ -99.135743, 19.408539 ] } },
{ "type": "Feature", "properties": { "id": 31, "geometry": { "type": "Point", "coordinates": [ -99.096068, 19.419589 ] }, "stop_id": 14053.0, "stop_code": null, "stop_name": "Blvd. Puerto Aéreo", "stop_desc": "Metro 1", "stop_lat": 19.41958866, "stop_lon": -99.09606814, "trip_heads": "Observatorio - Pantitlán", "agency_id": "METRO", "geopoint": "19.41958866,-99.09606814" }, "geometry": { "type": "Point", "coordinates": [ -99.096068, 19.419589 ] } },
{ "type": "Feature", "properties": { "id": 32, "geometry": { "type": "Point", "coordinates": [ -99.168305, 19.405756 ] }, "stop_id": 14110.0, "stop_code": null, "stop_name": "Chilpancingo_1_2", "stop_desc": "Metro 9", "stop_lat": 19.40575613, "stop_lon": -99.1683054, "trip_heads": "Tacubaya - Pantitlán", "agency_id": "METRO", "geopoint": "19.40575613,-99.1683054" }, "geometry": { "type": "Point", "coordinates": [ -99.168305, 19.405756 ] } },
{ "type": "Feature", "properties": { "id": 33, "geometry": { "type": "Point", "coordinates": [ -99.155045, 19.406363 ] }, "stop_id": 14109.0, "stop_code": null, "stop_name": "Centro Médico_1_2", "stop_desc": "Metro Línea 9 correspondencia con línea 3.", "stop_lat": 19.40636329, "stop_lon": -99.15504456, "trip_heads": "Tacubaya - Pantitlán", "agency_id": "METRO", "geopoint": "19.40636329,-99.15504456" }, "geometry": { "type": "Point", "coordinates": [ -99.155045, 19.406363 ] } },
{ "type": "Feature", "properties": { "id": 34, "geometry": { "type": "Point", "coordinates": [ -99.113889, 19.456820 ] }, "stop_id": 14185.0, "stop_code": null, "stop_name": "Consulado", "stop_desc": "Metro Línea 4 correspondencia con línea 5.", "stop_lat": 19.45682033, "stop_lon": -99.11388874, "trip_heads": "Martín Carrera - Santa Anita", "agency_id": "METRO", "geopoint": "19.45682033,-99.11388874" }, "geometry": { "type": "Point", "coordinates": [ -99.113889, 19.45682 ] } },
{ "type": "Feature", "properties": { "id": 35, "geometry": { "type": "Point", "coordinates": [ -99.186212, 19.490676 ] }, "stop_id": 14129.0, "stop_code": null, "stop_name": "Azcapotzalco_1", "stop_desc": "Metro 6", "stop_lat": 19.49067553, "stop_lon": -99.18621182, "trip_heads": "Martín Carrera - El Rosario", "agency_id": "METRO", "geopoint": "19.49067553,-99.18621182" }, "geometry": { "type": "Point", "coordinates": [ -99.186212, 19.490676 ] } },
{ "type": "Feature", "properties": { "id": 36, "geometry": { "type": "Point", "coordinates": [ -99.141161, 19.430982 ] }, "stop_id": 14142.0, "stop_code": null, "stop_name": "San Juan de Letrán", "stop_desc": "Metro 8", "stop_lat": 19.43098165, "stop_lon": -99.14116144, "trip_heads": "Garibaldi - Constitución de 1917", "agency_id": "METRO", "geopoint": "19.43098165,-99.14116144" }, "geometry": { "type": "Point", "coordinates": [ -99.141161, 19.430982 ] } },
{ "type": "Feature", "properties": { "id": 37, "geometry": { "type": "Point", "coordinates": [ -99.189860, 19.469111 ] }, "stop_id": 14107.0, "stop_code": null, "stop_name": "Refinería", "stop_desc": "Metro 7", "stop_lat": 19.46911098, "stop_lon": -99.18985963, "trip_heads": "Barranca del Muerto - El Rosario", "agency_id": "METRO", "geopoint": "19.46911098,-99.18985963" }, "geometry": { "type": "Point", "coordinates": [ -99.18986, 19.469111 ] } },
{ "type": "Feature", "properties": { "id": 38, "geometry": { "type": "Point", "coordinates": [ -99.072516, 19.414885 ] }, "stop_id": 14226.0, "stop_code": null, "stop_name": "Pantitlán_1_3", "stop_desc": "Metro Línea 9 correspondencia con líneas 1 5 y A.", "stop_lat": 19.414885, "stop_lon": -99.072516, "trip_heads": "Tacubaya - Pantitlán", "agency_id": "METRO", "geopoint": "19.414885,-99.072516" }, "geometry": { "type": "Point", "coordinates": [ -99.072516, 19.414885 ] } },
{ "type": "Feature", "properties": { "id": 39, "geometry": { "type": "Point", "coordinates": [ -99.175429, 19.353765 ] }, "stop_id": 14081.0, "stop_code": null, "stop_name": "Viveros", "stop_desc": "Metro 3", "stop_lat": 19.35376487, "stop_lon": -99.17542934, "trip_heads": "Indios Verdes - Universidad", "agency_id": "METRO", "geopoint": "19.35376487,-99.17542934" }, "geometry": { "type": "Point", "coordinates": [ -99.175429, 19.353765 ] } },
{ "type": "Feature", "properties": { "id": 40, "geometry": { "type": "Point", "coordinates": [ -99.149122, 19.427299 ] }, "stop_id": 14157.0, "stop_code": null, "stop_name": "Balderas_1_2", "stop_desc": "Metro Línea 1 correspondencia con línea 3.", "stop_lat": 19.42729875, "stop_lon": -99.14912224, "trip_heads": "Observatorio - Pantitlán", "agency_id": "METRO", "geopoint": "19.42729875,-99.14912224" }, "geometry": { "type": "Point", "coordinates": [ -99.149122, 19.427299 ] } },
{ "type": "Feature", "properties": { "id": 41, "geometry": { "type": "Point", "coordinates": [ -99.148811, 19.426924 ] }, "stop_id": 14139.0, "stop_code": null, "stop_name": "Balderas_1", "stop_desc": "Metro Línea 3 correspondencia con línea 1.", "stop_lat": 19.42692438, "stop_lon": -99.1488111, "trip_heads": "Indios Verdes - Universidad", "agency_id": "METRO", "geopoint": "19.42692438,-99.1488111" }, "geometry": { "type": "Point", "coordinates": [ -99.148811, 19.426924 ] } },
{ "type": "Feature", "properties": { "id": 42, "geometry": { "type": "Point", "coordinates": [ -99.140471, 19.478595 ] }, "stop_id": 14193.0, "stop_code": null, "stop_name": "Autobuses del Norte", "stop_desc": "Metro 5", "stop_lat": 19.478595, "stop_lon": -99.140471, "trip_heads": "Pantitlán - Politécnico", "agency_id": "METRO", "geopoint": "19.478595,-99.140471" }, "geometry": { "type": "Point", "coordinates": [ -99.140471, 19.478595 ] } },
{ "type": "Feature", "properties": { "id": 43, "geometry": { "type": "Point", "coordinates": [ -99.005978, 19.364252 ] }, "stop_id": 14204.0, "stop_code": null, "stop_name": "Acatitla", "stop_desc": "Metro A", "stop_lat": 19.3642515, "stop_lon": -99.00597811, "trip_heads": "La Paz - Pantitlán", "agency_id": "METRO", "geopoint": "19.3642515,-99.00597811" }, "geometry": { "type": "Point", "coordinates": [ -99.005978, 19.364252 ] } },
{ "type": "Feature", "properties": { "id": 44, "geometry": { "type": "Point", "coordinates": [ -99.142073, 19.427208 ] }, "stop_id": 14158.0, "stop_code": null, "stop_name": "Salto del Agua", "stop_desc": "Metro Línea 8 correspondencia con línea 1.", "stop_lat": 19.42720768, "stop_lon": -99.14207339, "trip_heads": "Garibaldi - Constitución de 1917", "agency_id": "METRO", "geopoint": "19.42720768,-99.14207339" }, "geometry": { "type": "Point", "coordinates": [ -99.142073, 19.427208 ] } },
{ "type": "Feature", "properties": { "id": 45, "geometry": { "type": "Point", "coordinates": [ -99.190793, 19.433380 ] }, "stop_id": 14114.0, "stop_code": null, "stop_name": "Polanco", "stop_desc": "Metro 7", "stop_lat": 19.43337954, "stop_lon": -99.19079304, "trip_heads": "Barranca del Muerto - El Rosario", "agency_id": "METRO", "geopoint": "19.43337954,-99.19079304" }, "geometry": { "type": "Point", "coordinates": [ -99.190793, 19.43338 ] } },
{ "type": "Feature", "properties": { "id": 46, "geometry": { "type": "Point", "coordinates": [ -99.162490, 19.488238 ] }, "stop_id": 14105.0, "stop_code": null, "stop_name": "Norte 45_1", "stop_desc": "Metro 6", "stop_lat": 19.48823803, "stop_lon": -99.16249037, "trip_heads": "Martín Carrera - El Rosario", "agency_id": "METRO", "geopoint": "19.48823803,-99.16249037" }, "geometry": { "type": "Point", "coordinates": [ -99.16249, 19.488238 ] } },
{ "type": "Feature", "properties": { "id": 47, "geometry": { "type": "Point", "coordinates": [ -99.202940, 19.458219 ] }, "stop_id": 14111.0, "stop_code": null, "stop_name": "Panteones", "stop_desc": "Metro 2", "stop_lat": 19.458219, "stop_lon": -99.20294, "trip_heads": "Cuatro Caminos - Tasqueña", "agency_id": "METRO", "geopoint": "19.458219,-99.20294" }, "geometry": { "type": "Point", "coordinates": [ -99.20294, 19.458219 ] } },
{ "type": "Feature", "properties": { "id": 48, "geometry": { "type": "Point", "coordinates": [ -99.181555, 19.456680 ] }, "stop_id": 14125.0, "stop_code": null, "stop_name": "Cuitláhuac_1_4", "stop_desc": "Metro 2", "stop_lat": 19.45668, "stop_lon": -99.181555, "trip_heads": "Cuatro Caminos - Tasqueña", "agency_id": "METRO", "geopoint": "19.45668,-99.181555" }, "geometry": { "type": "Point", "coordinates": [ -99.181555, 19.45668 ] } },
{ "type": "Feature", "properties": { "id": 49, "geometry": { "type": "Point", "coordinates": [ -99.113413, 19.397690 ] }, "stop_id": 14065.0, "stop_code": null, "stop_name": "Coyuya_1", "stop_desc": "Metro 8", "stop_lat": 19.39769, "stop_lon": -99.113413, "trip_heads": "Garibaldi - Constitución de 1917", "agency_id": "METRO", "geopoint": "19.39769,-99.113413" }, "geometry": { "type": "Point", "coordinates": [ -99.113413, 19.39769 ] } },
{ "type": "Feature", "properties": { "id": 50, "geometry": { "type": "Point", "coordinates": [ -99.170569, 19.361427 ] }, "stop_id": 14078.0, "stop_code": null, "stop_name": "Coyoacán", "stop_desc": "Metro 3", "stop_lat": 19.36142746, "stop_lon": -99.17056918, "trip_heads": "Indios Verdes - Universidad", "agency_id": "METRO", "geopoint": "19.36142746,-99.17056918" }, "geometry": { "type": "Point", "coordinates": [ -99.170569, 19.361427 ] } },
{ "type": "Feature", "properties": { "id": 51, "geometry": { "type": "Point", "coordinates": [ -99.139048, 19.469071 ] }, "stop_id": 14099.0, "stop_code": null, "stop_name": "La Raza_1_2", "stop_desc": "Metro Línea 3 correspondencia con línea 5.", "stop_lat": 19.46907052, "stop_lon": -99.13904786000001, "trip_heads": "Indios Verdes - Universidad", "agency_id": "METRO", "geopoint": "19.46907052,-99.13904786" }, "geometry": { "type": "Point", "coordinates": [ -99.139048, 19.469071 ] } },
{ "type": "Feature", "properties": { "id": 52, "geometry": { "type": "Point", "coordinates": [ -99.134295, 19.415906 ] }, "stop_id": 14160.0, "stop_code": null, "stop_name": "San Antonio Abad", "stop_desc": "Metro 2", "stop_lat": 19.4159055, "stop_lon": -99.13429499, "trip_heads": "Cuatro Caminos - Tasqueña", "agency_id": "METRO", "geopoint": "19.4159055,-99.13429499" }, "geometry": { "type": "Point", "coordinates": [ -99.134295, 19.415906 ] } },
{ "type": "Feature", "properties": { "id": 53, "geometry": { "type": "Point", "coordinates": [ -99.083226, 19.411797 ] }, "stop_id": 14217.0, "stop_code": null, "stop_name": "Zaragoza", "stop_desc": "Metro 1", "stop_lat": 19.41179726, "stop_lon": -99.08322573, "trip_heads": "Observatorio - Pantitlán", "agency_id": "METRO", "geopoint": "19.41179726,-99.08322573" }, "geometry": { "type": "Point", "coordinates": [ -99.083226, 19.411797 ] } },
{ "type": "Feature", "properties": { "id": 54, "geometry": { "type": "Point", "coordinates": [ -99.102817, 19.422887 ] }, "stop_id": 14172.0, "stop_code": null, "stop_name": "Balbuena", "stop_desc": "Metro 1", "stop_lat": 19.42288725, "stop_lon": -99.10281658, "trip_heads": "Observatorio - Pantitlán", "agency_id": "METRO", "geopoint": "19.42288725,-99.10281658" }, "geometry": { "type": "Point", "coordinates": [ -99.102817, 19.422887 ] } },
{ "type": "Feature", "properties": { "id": 55, "geometry": { "type": "Point", "coordinates": [ -99.095982, 19.451014 ] }, "stop_id": 14060.0, "stop_code": null, "stop_name": "Aragón", "stop_desc": "Metro 5", "stop_lat": 19.45101356, "stop_lon": -99.09598231, "trip_heads": "Pantitlán - Politécnico", "agency_id": "METRO", "geopoint": "19.45101356,-99.09598231" }, "geometry": { "type": "Point", "coordinates": [ -99.095982, 19.451014 ] } },
{ "type": "Feature", "properties": { "id": 56, "geometry": { "type": "Point", "coordinates": [ -99.187746, 19.376256 ] }, "stop_id": 14079.0, "stop_code": null, "stop_name": "Mixcoac_1", "stop_desc": "Metro Línea 7 correspondencia con línea 12.", "stop_lat": 19.37625563, "stop_lon": -99.18774605, "trip_heads": "Tláhuac - Mixcoac", "agency_id": "METRO", "geopoint": "19.37625563,-99.18774605" }, "geometry": { "type": "Point", "coordinates": [ -99.187746, 19.376256 ] } },
{ "type": "Feature", "properties": { "id": 57, "geometry": { "type": "Point", "coordinates": [ -99.094201, 19.440482 ] }, "stop_id": 14073.0, "stop_code": null, "stop_name": "Romero Rubio", "stop_desc": "Metro B", "stop_lat": 19.44048194, "stop_lon": -99.09420133, "trip_heads": "Buenavista - Ciudad Azteca", "agency_id": "METRO", "geopoint": "19.44048194,-99.09420133" }, "geometry": { "type": "Point", "coordinates": [ -99.094201, 19.440482 ] } },
{ "type": "Feature", "properties": { "id": 58, "geometry": { "type": "Point", "coordinates": [ -99.199483, 19.505229 ] }, "stop_id": 14127.0, "stop_code": null, "stop_name": "El Rosario_1", "stop_desc": "Metro Línea 6 correspondencia con línea 7.", "stop_lat": 19.50522896, "stop_lon": -99.19948339, "trip_heads": "Martín Carrera - El Rosario", "agency_id": "METRO", "geopoint": "19.50522896,-99.19948339" }, "geometry": { "type": "Point", "coordinates": [ -99.199483, 19.505229 ] } },
{ "type": "Feature", "properties": { "id": 59, "geometry": { "type": "Point", "coordinates": [ -99.139034, 19.443082 ] }, "stop_id": 14169.0, "stop_code": null, "stop_name": "Garibaldi_1", "stop_desc": "Metro Línea 8 correspondencia con línea B.", "stop_lat": 19.443082, "stop_lon": -99.139034, "trip_heads": "Garibaldi - Constitución de 1917", "agency_id": "METRO", "geopoint": "19.443082,-99.139034" }, "geometry": { "type": "Point", "coordinates": [ -99.139034, 19.443082 ] } },
{ "type": "Feature", "properties": { "id": 60, "geometry": { "type": "Point", "coordinates": [ -99.144337, 19.407021 ] }, "stop_id": 14156.0, "stop_code": null, "stop_name": "Lázaro Cárdenas", "stop_desc": "Metro 9", "stop_lat": 19.40702104, "stop_lon": -99.14433718, "trip_heads": "Tacubaya - Pantitlán", "agency_id": "METRO", "geopoint": "19.40702104,-99.14433718" }, "geometry": { "type": "Point", "coordinates": [ -99.144337, 19.407021 ] } },
{ "type": "Feature", "properties": { "id": 61, "geometry": { "type": "Point", "coordinates": [ -99.061146, 19.461352 ] }, "stop_id": 14211.0, "stop_code": null, "stop_name": "Villa de Aragón", "stop_desc": "Metro B", "stop_lat": 19.4613523, "stop_lon": -99.06114578, "trip_heads": "Buenavista - Ciudad Azteca", "agency_id": "METRO", "geopoint": "19.4613523,-99.06114578" }, "geometry": { "type": "Point", "coordinates": [ -99.061146, 19.461352 ] } },
{ "type": "Feature", "properties": { "id": 62, "geometry": { "type": "Point", "coordinates": [ -99.035686, 19.514705 ] }, "stop_id": 14225.0, "stop_code": null, "stop_name": "Tecnológico", "stop_desc": "Metro B", "stop_lat": 19.51470467, "stop_lon": -99.03568625, "trip_heads": "Buenavista - Ciudad Azteca", "agency_id": "METRO", "geopoint": "19.51470467,-99.03568625" }, "geometry": { "type": "Point", "coordinates": [ -99.035686, 19.514705 ] } },
{ "type": "Feature", "properties": { "id": 63, "geometry": { "type": "Point", "coordinates": [ -99.160945, 19.441858 ] }, "stop_id": 14098.0, "stop_code": null, "stop_name": "San Cosme", "stop_desc": "Metro 2", "stop_lat": 19.44185787, "stop_lon": -99.16094542, "trip_heads": "Cuatro Caminos - Tasqueña", "agency_id": "METRO", "geopoint": "19.44185787,-99.16094542" }, "geometry": { "type": "Point", "coordinates": [ -99.160945, 19.441858 ] } },
{ "type": "Feature", "properties": { "id": 64, "geometry": { "type": "Point", "coordinates": [ -99.074808, 19.350327 ] }, "stop_id": 14201.0, "stop_code": null, "stop_name": "UAM-I", "stop_desc": "Metro 8", "stop_lat": 19.350327, "stop_lon": -99.074808, "trip_heads": "Garibaldi - Constitución de 1917", "agency_id": "METRO", "geopoint": "19.350327,-99.074808" }, "geometry": { "type": "Point", "coordinates": [ -99.074808, 19.350327 ] } },
{ "type": "Feature", "properties": { "id": 65, "geometry": { "type": "Point", "coordinates": [ -98.995894, 19.359804 ] }, "stop_id": 14205.0, "stop_code": null, "stop_name": "Santa Marta", "stop_desc": "Metro A", "stop_lat": 19.359804, "stop_lon": -98.995894, "trip_heads": "La Paz - Pantitlán", "agency_id": "METRO", "geopoint": "19.359804,-98.995894" }, "geometry": { "type": "Point", "coordinates": [ -98.995894, 19.359804 ] } },
{ "type": "Feature", "properties": { "id": 66, "geometry": { "type": "Point", "coordinates": [ -99.191737, 19.425305 ] }, "stop_id": 14115.0, "stop_code": null, "stop_name": "Auditorio", "stop_desc": "Metro 7", "stop_lat": 19.42530549, "stop_lon": -99.19173717, "trip_heads": "Barranca del Muerto - El Rosario", "agency_id": "METRO", "geopoint": "19.42530549,-99.19173717" }, "geometry": { "type": "Point", "coordinates": [ -99.191737, 19.425305 ] } },
{ "type": "Feature", "properties": { "id": 67, "geometry": { "type": "Point", "coordinates": [ -99.107398, 19.372926 ] }, "stop_id": 14087.0, "stop_code": null, "stop_name": "Aculco", "stop_desc": "Metro 8", "stop_lat": 19.37292574, "stop_lon": -99.10739779, "trip_heads": "Garibaldi - Constitución de 1917", "agency_id": "METRO", "geopoint": "19.37292574,-99.10739779" }, "geometry": { "type": "Point", "coordinates": [ -99.107398, 19.372926 ] } },
{ "type": "Feature", "properties": { "id": 68, "geometry": { "type": "Point", "coordinates": [ -99.133040, 19.425437 ] }, "stop_id": 14137.0, "stop_code": null, "stop_name": "Pino Suárez_1", "stop_desc": "Metro Línea 2 correspondencia con línea 1.", "stop_lat": 19.42543703, "stop_lon": -99.13303971000001, "trip_heads": "Cuatro Caminos - Tasqueña", "agency_id": "METRO", "geopoint": "19.42543703,-99.13303971" }, "geometry": { "type": "Point", "coordinates": [ -99.13304, 19.425437 ] } },
{ "type": "Feature", "properties": { "id": 69, "geometry": { "type": "Point", "coordinates": [ -99.088204, 19.433804 ] }, "stop_id": 14212.0, "stop_code": null, "stop_name": "Terminal Aérea", "stop_desc": "Metro 5", "stop_lat": 19.43380448, "stop_lon": -99.08820391, "trip_heads": "Pantitlán - Politécnico", "agency_id": "METRO", "geopoint": "19.43380448,-99.08820391" }, "geometry": { "type": "Point", "coordinates": [ -99.088204, 19.433804 ] } },
{ "type": "Feature", "properties": { "id": 70, "geometry": { "type": "Point", "coordinates": [ -99.170741, 19.421896 ] }, "stop_id": 14118.0, "stop_code": null, "stop_name": "Sevilla", "stop_desc": "Metro 1", "stop_lat": 19.42189565, "stop_lon": -99.17074084, "trip_heads": "Observatorio - Pantitlán", "agency_id": "METRO", "geopoint": "19.42189565,-99.17074084" }, "geometry": { "type": "Point", "coordinates": [ -99.170741, 19.421896 ] } },
{ "type": "Feature", "properties": { "id": 71, "geometry": { "type": "Point", "coordinates": [ -99.123234, 19.442566 ] }, "stop_id": 14148.0, "stop_code": null, "stop_name": "Tepito", "stop_desc": "Metro B", "stop_lat": 19.44256606, "stop_lon": -99.12323356, "trip_heads": "Buenavista - Ciudad Azteca", "agency_id": "METRO", "geopoint": "19.44256606,-99.12323356" }, "geometry": { "type": "Point", "coordinates": [ -99.123234, 19.442566 ] } },
{ "type": "Feature", "properties": { "id": 72, "geometry": { "type": "Point", "coordinates": [ -99.200299, 19.503955 ] }, "stop_id": 14130.0, "stop_code": null, "stop_name": "El Rosario_1_2", "stop_desc": "Metro Línea 7 correspondencia con línea 6.", "stop_lat": 19.5039547, "stop_lon": -99.20029879000001, "trip_heads": "Barranca del Muerto - El Rosario", "agency_id": "METRO", "geopoint": "19.5039547,-99.20029879" }, "geometry": { "type": "Point", "coordinates": [ -99.200299, 19.503955 ] } },
{ "type": "Feature", "properties": { "id": 73, "geometry": { "type": "Point", "coordinates": [ -99.145013, 19.444751 ] }, "stop_id": 14164.0, "stop_code": null, "stop_name": "Guerrero_1_3", "stop_desc": "Metro Línea 3 correspondencia con línea B.", "stop_lat": 19.44475133, "stop_lon": -99.14501309000001, "trip_heads": "Indios Verdes - Universidad", "agency_id": "METRO", "geopoint": "19.44475133,-99.14501309" }, "geometry": { "type": "Point", "coordinates": [ -99.145013, 19.444751 ] } },
{ "type": "Feature", "properties": { "id": 74, "geometry": { "type": "Point", "coordinates": [ -99.120337, 19.421491 ] }, "stop_id": 14174.0, "stop_code": null, "stop_name": "Fray Servando", "stop_desc": "Metro 4", "stop_lat": 19.42149092, "stop_lon": -99.12033677, "trip_heads": "Martín Carrera - Santa Anita", "agency_id": "METRO", "geopoint": "19.42149092,-99.12033677" }, "geometry": { "type": "Point", "coordinates": [ -99.120337, 19.421491 ] } },
{ "type": "Feature", "properties": { "id": 75, "geometry": { "type": "Point", "coordinates": [ -99.119141, 19.495315 ] }, "stop_id": 14186.0, "stop_code": null, "stop_name": "Indios Verdes_1", "stop_desc": "Metro 3", "stop_lat": 19.495315, "stop_lon": -99.119141, "trip_heads": "Indios Verdes - Universidad", "agency_id": "METRO", "geopoint": "19.495315,-99.119141" }, "geometry": { "type": "Point", "coordinates": [ -99.119141, 19.495315 ] } },
{ "type": "Feature", "properties": { "id": 76, "geometry": { "type": "Point", "coordinates": [ -99.144831, 19.360304 ] }, "stop_id": 42430.0, "stop_code": null, "stop_name": "Ermita_1", "stop_desc": "Metro Línea 12", "stop_lat": 19.36030391, "stop_lon": -99.1448307, "trip_heads": "Tláhuac - Mixcoac", "agency_id": "METRO", "geopoint": "19.36030391,-99.1448307" }, "geometry": { "type": "Point", "coordinates": [ -99.144831, 19.360304 ] } },
{ "type": "Feature", "properties": { "id": 77, "geometry": { "type": "Point", "coordinates": [ -99.157244, 19.386285 ] }, "stop_id": 14074.0, "stop_code": null, "stop_name": "Eugenia", "stop_desc": "Metro 3", "stop_lat": 19.38628539, "stop_lon": -99.15724397, "trip_heads": "Indios Verdes - Universidad", "agency_id": "METRO", "geopoint": "19.38628539,-99.15724397" }, "geometry": { "type": "Point", "coordinates": [ -99.157244, 19.386285 ] } },
{ "type": "Feature", "properties": { "id": 78, "geometry": { "type": "Point", "coordinates": [ -99.157662, 19.370466 ] }, "stop_id": 14240.0, "stop_code": null, "stop_name": "Parque de los Venados", "stop_desc": "Metro 12", "stop_lat": 19.37046623, "stop_lon": -99.15766239, "trip_heads": "Tláhuac - Mixcoac", "agency_id": "METRO", "geopoint": "19.37046623,-99.15766239" }, "geometry": { "type": "Point", "coordinates": [ -99.157662, 19.370466 ] } },
{ "type": "Feature", "properties": { "id": 79, "geometry": { "type": "Point", "coordinates": [ -99.178466, 19.405594 ] }, "stop_id": 14121.0, "stop_code": null, "stop_name": "Patriotismo_1_2", "stop_desc": "Metro 9", "stop_lat": 19.40559422, "stop_lon": -99.1784656, "trip_heads": "Tacubaya - Pantitlán", "agency_id": "METRO", "geopoint": "19.40559422,-99.1784656" }, "geometry": { "type": "Point", "coordinates": [ -99.178466, 19.405594 ] } },
{ "type": "Feature", "properties": { "id": 80, "geometry": { "type": "Point", "coordinates": [ -99.130518, 19.462900 ] }, "stop_id": 14104.0, "stop_code": null, "stop_name": "Misterios", "stop_desc": "Metro 5", "stop_lat": 19.46290002, "stop_lon": -99.13051844, "trip_heads": "Pantitlán - Politécnico", "agency_id": "METRO", "geopoint": "19.46290002,-99.13051844" }, "geometry": { "type": "Point", "coordinates": [ -99.130518, 19.4629 ] } },
{ "type": "Feature", "properties": { "id": 81, "geometry": { "type": "Point", "coordinates": [ -99.200669, 19.397486 ] }, "stop_id": 14055.0, "stop_code": null, "stop_name": "Observatorio", "stop_desc": "Metro 1", "stop_lat": 19.397486, "stop_lon": -99.200669, "trip_heads": "Observatorio - Pantitlán", "agency_id": "METRO", "geopoint": "19.397486,-99.200669" }, "geometry": { "type": "Point", "coordinates": [ -99.200669, 19.397486 ] } },
{ "type": "Feature", "properties": { "id": 82, "geometry": { "type": "Point", "coordinates": [ -99.096696, 19.322002 ] }, "stop_id": 14235.0, "stop_code": null, "stop_name": "Lomas Estrella", "stop_desc": "Metro 12", "stop_lat": 19.322002, "stop_lon": -99.096696, "trip_heads": "Tláhuac - Mixcoac", "agency_id": "METRO", "geopoint": "19.322002,-99.096696" }, "geometry": { "type": "Point", "coordinates": [ -99.096696, 19.322002 ] } },
{ "type": "Feature", "properties": { "id": 83, "geometry": { "type": "Point", "coordinates": [ -98.960617, 19.350485 ] }, "stop_id": 14207.0, "stop_code": null, "stop_name": "La Paz", "stop_desc": "Metro A", "stop_lat": 19.35048513, "stop_lon": -98.96061659, "trip_heads": "La Paz - Pantitlán", "agency_id": "METRO", "geopoint": "19.35048513,-98.96061659" }, "geometry": { "type": "Point", "coordinates": [ -98.960617, 19.350485 ] } },
{ "type": "Feature", "properties": { "id": 84, "geometry": { "type": "Point", "coordinates": [ -99.143082, 19.455202 ] }, "stop_id": 14100.0, "stop_code": null, "stop_name": "Tlatelolco_1", "stop_desc": "Metro 3", "stop_lat": 19.45520174, "stop_lon": -99.1430819, "trip_heads": "Indios Verdes - Universidad", "agency_id": "METRO", "geopoint": "19.45520174,-99.1430819" }, "geometry": { "type": "Point", "coordinates": [ -99.143082, 19.455202 ] } },
{ "type": "Feature", "properties": { "id": 85, "geometry": { "type": "Point", "coordinates": [ -99.125973, 19.406106 ] }, "stop_id": 14143.0, "stop_code": null, "stop_name": "La Viga_1", "stop_desc": "Metro 8", "stop_lat": 19.406106, "stop_lon": -99.125973, "trip_heads": "Garibaldi - Constitución de 1917", "agency_id": "METRO", "geopoint": "19.406106,-99.125973" }, "geometry": { "type": "Point", "coordinates": [ -99.125973, 19.406106 ] } },
{ "type": "Feature", "properties": { "id": 86, "geometry": { "type": "Point", "coordinates": [ -99.175462, 19.452612 ] }, "stop_id": 14123.0, "stop_code": null, "stop_name": "Popotla", "stop_desc": "Metro 2", "stop_lat": 19.45261196, "stop_lon": -99.17546153000001, "trip_heads": "Cuatro Caminos - Tasqueña", "agency_id": "METRO", "geopoint": "19.45261196,-99.17546153" }, "geometry": { "type": "Point", "coordinates": [ -99.175462, 19.452612 ] } },
{ "type": "Feature", "properties": { "id": 87, "geometry": { "type": "Point", "coordinates": [ -99.074719, 19.317492 ] }, "stop_id": 14233.0, "stop_code": null, "stop_name": "Periférico Ote", "stop_desc": "Metro 12", "stop_lat": 19.317492, "stop_lon": -99.074719, "trip_heads": "Tláhuac - Mixcoac", "agency_id": "METRO", "geopoint": "19.317492,-99.074719" }, "geometry": { "type": "Point", "coordinates": [ -99.074719, 19.317492 ] } },
{ "type": "Feature", "properties": { "id": 88, "geometry": { "type": "Point", "coordinates": [ -99.058313, 19.303286 ] }, "stop_id": 14231.0, "stop_code": null, "stop_name": "Olivos", "stop_desc": "Metro 12", "stop_lat": 19.30328601, "stop_lon": -99.05831337, "trip_heads": "Tláhuac - Mixcoac", "agency_id": "METRO", "geopoint": "19.30328601,-99.05831337" }, "geometry": { "type": "Point", "coordinates": [ -99.058313, 19.303286 ] } },
{ "type": "Feature", "properties": { "id": 89, "geometry": { "type": "Point", "coordinates": [ -99.114575, 19.430800 ] }, "stop_id": 14179.0, "stop_code": null, "stop_name": "San Lázaro_1_5", "stop_desc": "Metro Línea 1 correspondencia con línea B.", "stop_lat": 19.43079953, "stop_lon": -99.11457539, "trip_heads": "Observatorio - Pantitlán", "agency_id": "METRO", "geopoint": "19.43079953,-99.11457539" }, "geometry": { "type": "Point", "coordinates": [ -99.114575, 19.4308 ] } },
{ "type": "Feature", "properties": { "id": 90, "geometry": { "type": "Point", "coordinates": [ -99.114463, 19.431822 ] }, "stop_id": 14147.0, "stop_code": null, "stop_name": "San Lázaro_1_4", "stop_desc": "Metro Línea B correspondencia con línea 1.", "stop_lat": 19.431822, "stop_lon": -99.114463, "trip_heads": "Buenavista - Ciudad Azteca", "agency_id": "METRO", "geopoint": "19.431822,-99.114463" }, "geometry": { "type": "Point", "coordinates": [ -99.114463, 19.431822 ] } },
{ "type": "Feature", "properties": { "id": 91, "geometry": { "type": "Point", "coordinates": [ -99.034023, 19.296390 ] }, "stop_id": 14229.0, "stop_code": null, "stop_name": "Zapotitlán", "stop_desc": "Metro 12", "stop_lat": 19.29639028, "stop_lon": -99.03402328, "trip_heads": "Tláhuac - Mixcoac", "agency_id": "METRO", "geopoint": "19.29639028,-99.03402328" }, "geometry": { "type": "Point", "coordinates": [ -99.034023, 19.29639 ] } },
{ "type": "Feature", "properties": { "id": 92, "geometry": { "type": "Point", "coordinates": [ -99.014432, 19.286801 ] }, "stop_id": 14227.0, "stop_code": null, "stop_name": "Tláhuac", "stop_desc": "Metro 12", "stop_lat": 19.28680057, "stop_lon": -99.01443243, "trip_heads": "Tláhuac - Mixcoac", "agency_id": "METRO", "geopoint": "19.28680057,-99.01443243" }, "geometry": { "type": "Point", "coordinates": [ -99.014432, 19.286801 ] } },
{ "type": "Feature", "properties": { "id": 93, "geometry": { "type": "Point", "coordinates": [ -99.147309, 19.437700 ] }, "stop_id": 14167.0, "stop_code": null, "stop_name": "Hidalgo_1_2", "stop_desc": "Metro Línea 2 correspondencia con línea 3.", "stop_lat": 19.4376997, "stop_lon": -99.14730906, "trip_heads": "Cuatro Caminos - Tasqueña", "agency_id": "METRO", "geopoint": "19.4376997,-99.14730906" }, "geometry": { "type": "Point", "coordinates": [ -99.147309, 19.4377 ] } },
{ "type": "Feature", "properties": { "id": 94, "geometry": { "type": "Point", "coordinates": [ -99.101572, 19.355708 ] }, "stop_id": 14066.0, "stop_code": null, "stop_name": "Atlalilco", "stop_desc": "Metro Línea 8 correspondencia con línea 12.", "stop_lat": 19.35570839, "stop_lon": -99.10157204, "trip_heads": "Garibaldi - Constitución de 1917", "agency_id": "METRO", "geopoint": "19.35570839,-99.10157204" }, "geometry": { "type": "Point", "coordinates": [ -99.101572, 19.355708 ] } },
{ "type": "Feature", "properties": { "id": 95, "geometry": { "type": "Point", "coordinates": [ -99.118910, 19.429171 ] }, "stop_id": 42487.0, "stop_code": null, "stop_name": "Candelaria_1", "stop_desc": "Metro Línea 4 correspondencia con línea 1.", "stop_lat": 19.42917056, "stop_lon": -99.11890984, "trip_heads": "Martín Carrera - Santa Anita", "agency_id": "METRO", "geopoint": "19.42917056,-99.11890984" }, "geometry": { "type": "Point", "coordinates": [ -99.11891, 19.429171 ] } },
{ "type": "Feature", "properties": { "id": 96, "geometry": { "type": "Point", "coordinates": [ -99.194511, 19.489367 ] }, "stop_id": 14131.0, "stop_code": null, "stop_name": "Aquiles Serdán", "stop_desc": "Metro 7", "stop_lat": 19.489367, "stop_lon": -99.194511, "trip_heads": "Barranca del Muerto - El Rosario", "agency_id": "METRO", "geopoint": "19.489367,-99.194511" }, "geometry": { "type": "Point", "coordinates": [ -99.194511, 19.489367 ] } },
{ "type": "Feature", "properties": { "id": 97, "geometry": { "type": "Point", "coordinates": [ -99.027114, 19.534443 ] }, "stop_id": 14208.0, "stop_code": null, "stop_name": "Ciudad Azteca", "stop_desc": "Metro B", "stop_lat": 19.53444312, "stop_lon": -99.02711391, "trip_heads": "Buenavista - Ciudad Azteca", "agency_id": "METRO", "geopoint": "19.53444312,-99.02711391" }, "geometry": { "type": "Point", "coordinates": [ -99.027114, 19.534443 ] } },
{ "type": "Feature", "properties": { "id": 98, "geometry": { "type": "Point", "coordinates": [ -99.188948, 19.478730 ] }, "stop_id": 14132.0, "stop_code": null, "stop_name": "Camarones", "stop_desc": "Metro 7", "stop_lat": 19.47873042, "stop_lon": -99.18894768, "trip_heads": "Barranca del Muerto - El Rosario", "agency_id": "METRO", "geopoint": "19.47873042,-99.18894768" }, "geometry": { "type": "Point", "coordinates": [ -99.188948, 19.47873 ] } },
{ "type": "Feature", "properties": { "id": 99, "geometry": { "type": "Point", "coordinates": [ -99.143318, 19.426985 ] }, "stop_id": 42338.0, "stop_code": null, "stop_name": "Salto del Agua_1", "stop_desc": "Metro Línea 1 correspondencia con línea 8.", "stop_lat": 19.42698509, "stop_lon": -99.14331794, "trip_heads": "Observatorio - Pantitlán", "agency_id": "METRO", "geopoint": "19.42698509,-99.14331794" }, "geometry": { "type": "Point", "coordinates": [ -99.143318, 19.426985 ] } },
{ "type": "Feature", "properties": { "id": 100, "geometry": { "type": "Point", "coordinates": [ -99.185729, 19.391224 ] }, "stop_id": 14063.0, "stop_code": null, "stop_name": "San Pedro de Los Pinos", "stop_desc": "Metro 7", "stop_lat": 19.39122414, "stop_lon": -99.18572903, "trip_heads": "Barranca del Muerto - El Rosario", "agency_id": "METRO", "geopoint": "19.39122414,-99.18572903" }, "geometry": { "type": "Point", "coordinates": [ -99.185729, 19.391224 ] } },
{ "type": "Feature", "properties": { "id": 101, "geometry": { "type": "Point", "coordinates": [ -99.103428, 19.436283 ] }, "stop_id": 14146.0, "stop_code": null, "stop_name": "R. Flores Magón", "stop_desc": "Metro B", "stop_lat": 19.43628327, "stop_lon": -99.10342813, "trip_heads": "Buenavista - Ciudad Azteca", "agency_id": "METRO", "geopoint": "19.43628327,-99.10342813" }, "geometry": { "type": "Point", "coordinates": [ -99.103428, 19.436283 ] } },
{ "type": "Feature", "properties": { "id": 102, "geometry": { "type": "Point", "coordinates": [ -99.023829, 19.294555 ] }, "stop_id": 14228.0, "stop_code": null, "stop_name": "Tlaltenco", "stop_desc": "Metro 12", "stop_lat": 19.294555, "stop_lon": -99.023829, "trip_heads": "Tláhuac - Mixcoac", "agency_id": "METRO", "geopoint": "19.294555,-99.023829" }, "geometry": { "type": "Point", "coordinates": [ -99.023829, 19.294555 ] } },
{ "type": "Feature", "properties": { "id": 103, "geometry": { "type": "Point", "coordinates": [ -99.093418, 19.357601 ] }, "stop_id": 14067.0, "stop_code": null, "stop_name": "Iztapalapa", "stop_desc": "Metro 8", "stop_lat": 19.35760127, "stop_lon": -99.09341812, "trip_heads": "Garibaldi - Constitución de 1917", "agency_id": "METRO", "geopoint": "19.35760127,-99.09341812" }, "geometry": { "type": "Point", "coordinates": [ -99.093418, 19.357601 ] } },
{ "type": "Feature", "properties": { "id": 104, "geometry": { "type": "Point", "coordinates": [ -99.178594, 19.373604 ] }, "stop_id": 14242.0, "stop_code": null, "stop_name": "Insurgentes Sur_1", "stop_desc": "Metro 12", "stop_lat": 19.37360387, "stop_lon": -99.17859435, "trip_heads": "Tláhuac - Mixcoac", "agency_id": "METRO", "geopoint": "19.37360387,-99.17859435" }, "geometry": { "type": "Point", "coordinates": [ -99.178594, 19.373604 ] } },
{ "type": "Feature", "properties": { "id": 105, "geometry": { "type": "Point", "coordinates": [ -99.140614, 19.436496 ] }, "stop_id": 14141.0, "stop_code": null, "stop_name": "Bellas Artes_1", "stop_desc": "Metro Línea 8 correspondencia con línea 2.", "stop_lat": 19.43649573, "stop_lon": -99.14061427, "trip_heads": "Garibaldi - Constitución de 1917", "agency_id": "METRO", "geopoint": "19.43649573,-99.14061427" }, "geometry": { "type": "Point", "coordinates": [ -99.140614, 19.436496 ] } },
{ "type": "Feature", "properties": { "id": 106, "geometry": { "type": "Point", "coordinates": [ -99.153897, 19.438802 ] }, "stop_id": 14050.0, "stop_code": null, "stop_name": "Revolución_1", "stop_desc": "Metro 2", "stop_lat": 19.43880248, "stop_lon": -99.15389657, "trip_heads": "Cuatro Caminos - Tasqueña", "agency_id": "METRO", "geopoint": "19.43880248,-99.15389657" }, "geometry": { "type": "Point", "coordinates": [ -99.153897, 19.438802 ] } },
{ "type": "Feature", "properties": { "id": 107, "geometry": { "type": "Point", "coordinates": [ -99.143929, 19.413012 ] }, "stop_id": 14154.0, "stop_code": null, "stop_name": "Obrera", "stop_desc": "Metro 8", "stop_lat": 19.41301153, "stop_lon": -99.14392948, "trip_heads": "Garibaldi - Constitución de 1917", "agency_id": "METRO", "geopoint": "19.41301153,-99.14392948" }, "geometry": { "type": "Point", "coordinates": [ -99.143929, 19.413012 ] } },
{ "type": "Feature", "properties": { "id": 108, "geometry": { "type": "Point", "coordinates": [ -99.029796, 19.528225 ] }, "stop_id": 14209.0, "stop_code": null, "stop_name": "Plaza Aragón", "stop_desc": "Metro B", "stop_lat": 19.52822456, "stop_lon": -99.02979612, "trip_heads": "Buenavista - Ciudad Azteca", "agency_id": "METRO", "geopoint": "19.52822456,-99.02979612" }, "geometry": { "type": "Point", "coordinates": [ -99.029796, 19.528225 ] } },
{ "type": "Feature", "properties": { "id": 109, "geometry": { "type": "Point", "coordinates": [ -99.017286, 19.372916 ] }, "stop_id": 14199.0, "stop_code": null, "stop_name": "Peñón Viejo", "stop_desc": "Metro A", "stop_lat": 19.37291562, "stop_lon": -99.0172863, "trip_heads": "La Paz - Pantitlán", "agency_id": "METRO", "geopoint": "19.37291562,-99.0172863" }, "geometry": { "type": "Point", "coordinates": [ -99.017286, 19.372916 ] } },
{ "type": "Feature", "properties": { "id": 110, "geometry": { "type": "Point", "coordinates": [ -99.139954, 19.443376 ] }, "stop_id": 14165.0, "stop_code": null, "stop_name": "Garibaldi", "stop_desc": "Metro Línea B correspondencia con línea 8.", "stop_lat": 19.443376, "stop_lon": -99.139954, "trip_heads": "Buenavista - Ciudad Azteca", "agency_id": "METRO", "geopoint": "19.443376,-99.139954" }, "geometry": { "type": "Point", "coordinates": [ -99.139954, 19.443376 ] } },
{ "type": "Feature", "properties": { "id": 111, "geometry": { "type": "Point", "coordinates": [ -99.159508, 19.378928 ] }, "stop_id": 14083.0, "stop_code": null, "stop_name": "División del Norte", "stop_desc": "Metro 3", "stop_lat": 19.3789276, "stop_lon": -99.15950775, "trip_heads": "Indios Verdes - Universidad", "agency_id": "METRO", "geopoint": "19.3789276,-99.15950775" }, "geometry": { "type": "Point", "coordinates": [ -99.159508, 19.378928 ] } },
{ "type": "Feature", "properties": { "id": 112, "geometry": { "type": "Point", "coordinates": [ -99.137825, 19.426095 ] }, "stop_id": 14149.0, "stop_code": null, "stop_name": "Isabel la Católica_1_5", "stop_desc": "Metro 1", "stop_lat": 19.4260947, "stop_lon": -99.13782477, "trip_heads": "Observatorio - Pantitlán", "agency_id": "METRO", "geopoint": "19.4260947,-99.13782477" }, "geometry": { "type": "Point", "coordinates": [ -99.137825, 19.426095 ] } },
{ "type": "Feature", "properties": { "id": 113, "geometry": { "type": "Point", "coordinates": [ -99.125412, 19.425467 ] }, "stop_id": 14135.0, "stop_code": null, "stop_name": "Merced", "stop_desc": "Metro 1", "stop_lat": 19.42546738, "stop_lon": -99.12541151000001, "trip_heads": "Observatorio - Pantitlán", "agency_id": "METRO", "geopoint": "19.42546738,-99.12541151" }, "geometry": { "type": "Point", "coordinates": [ -99.125412, 19.425467 ] } },
{ "type": "Feature", "properties": { "id": 114, "geometry": { "type": "Point", "coordinates": [ -99.167190, 19.444245 ] }, "stop_id": 14126.0, "stop_code": null, "stop_name": "Normal", "stop_desc": "Metro 2", "stop_lat": 19.44424548, "stop_lon": -99.1671896, "trip_heads": "Cuatro Caminos - Tasqueña", "agency_id": "METRO", "geopoint": "19.44424548,-99.1671896" }, "geometry": { "type": "Point", "coordinates": [ -99.16719, 19.444245 ] } },
{ "type": "Feature", "properties": { "id": 115, "geometry": { "type": "Point", "coordinates": [ -99.186641, 19.402235 ] }, "stop_id": 14062.0, "stop_code": null, "stop_name": "Tacubaya_1_2", "stop_desc": "Metro Línea 7 correspondencia con línea 1 y línea 9.", "stop_lat": 19.40223457, "stop_lon": -99.18664098000001, "trip_heads": "Barranca del Muerto - El Rosario", "agency_id": "METRO", "geopoint": "19.40223457,-99.18664098" }, "geometry": { "type": "Point", "coordinates": [ -99.186641, 19.402235 ] } },
{ "type": "Feature", "properties": { "id": 116, "geometry": { "type": "Point", "coordinates": [ -99.187349, 19.401921 ] }, "stop_id": 14122.0, "stop_code": null, "stop_name": "Tacubaya_1_3", "stop_desc": "Metro Línea 9 correspondencia con línea 1 y línea 7.", "stop_lat": 19.40192086, "stop_lon": -99.18734908, "trip_heads": "Tacubaya - Pantitlán", "agency_id": "METRO", "geopoint": "19.40192086,-99.18734908" }, "geometry": { "type": "Point", "coordinates": [ -99.187349, 19.401921 ] } },
{ "type": "Feature", "properties": { "id": 117, "geometry": { "type": "Point", "coordinates": [ -99.164550, 19.370740 ] }, "stop_id": 14077.0, "stop_code": null, "stop_name": "Zapata", "stop_desc": "Metro Línea 3 correspondencia con línea 12.", "stop_lat": 19.37073951, "stop_lon": -99.1645503, "trip_heads": "Indios Verdes - Universidad", "agency_id": "METRO", "geopoint": "19.37073951,-99.1645503" }, "geometry": { "type": "Point", "coordinates": [ -99.16455, 19.37074 ] } },
{ "type": "Feature", "properties": { "id": 118, "geometry": { "type": "Point", "coordinates": [ -99.171224, 19.448646 ] }, "stop_id": 14124.0, "stop_code": null, "stop_name": "Colegio Militar", "stop_desc": "Metro 2", "stop_lat": 19.44864628, "stop_lon": -99.17122364, "trip_heads": "Cuatro Caminos - Tasqueña", "agency_id": "METRO", "geopoint": "19.44864628,-99.17122364" }, "geometry": { "type": "Point", "coordinates": [ -99.171224, 19.448646 ] } },
{ "type": "Feature", "properties": { "id": 119, "geometry": { "type": "Point", "coordinates": [ -99.176588, 19.420256 ] }, "stop_id": 14119.0, "stop_code": null, "stop_name": "Chapultepec", "stop_desc": "Metro 1", "stop_lat": 19.42025648, "stop_lon": -99.17658806, "trip_heads": "Observatorio - Pantitlán", "agency_id": "METRO", "geopoint": "19.42025648,-99.17658806" }, "geometry": { "type": "Point", "coordinates": [ -99.176588, 19.420256 ] } },
{ "type": "Feature", "properties": { "id": 120, "geometry": { "type": "Point", "coordinates": [ -99.109340, 19.378298 ] }, "stop_id": 14095.0, "stop_code": null, "stop_name": "Apatlaco", "stop_desc": "Metro 8", "stop_lat": 19.378298, "stop_lon": -99.10934, "trip_heads": "Garibaldi - Constitución de 1917", "agency_id": "METRO", "geopoint": "19.378298,-99.10934" }, "geometry": { "type": "Point", "coordinates": [ -99.10934, 19.378298 ] } },
{ "type": "Feature", "properties": { "id": 121, "geometry": { "type": "Point", "coordinates": [ -99.084867, 19.320256 ] }, "stop_id": 14234.0, "stop_code": null, "stop_name": "Calle 11", "stop_desc": "Metro 12", "stop_lat": 19.32025578, "stop_lon": -99.08486724, "trip_heads": "Tláhuac - Mixcoac", "agency_id": "METRO", "geopoint": "19.32025578,-99.08486724" }, "geometry": { "type": "Point", "coordinates": [ -99.084867, 19.320256 ] } },
{ "type": "Feature", "properties": { "id": 122, "geometry": { "type": "Point", "coordinates": [ -99.086906, 19.445429 ] }, "stop_id": 14061.0, "stop_code": null, "stop_name": "Oceanía", "stop_desc": "Metro Línea 5 correspondencia con línea B.", "stop_lat": 19.44542916, "stop_lon": -99.08690572, "trip_heads": "Pantitlán - Politécnico", "agency_id": "METRO", "geopoint": "19.44542916,-99.08690572" }, "geometry": { "type": "Point", "coordinates": [ -99.086906, 19.445429 ] } },
{ "type": "Feature", "properties": { "id": 123, "geometry": { "type": "Point", "coordinates": [ -99.186866, 19.375679 ] }, "stop_id": 132131.0, "stop_code": null, "stop_name": "Mixcoac", "stop_desc": "Metro Línea 12 correspondencia con línea 7.", "stop_lat": 19.37567873, "stop_lon": -99.18686628, "trip_heads": "Mixcoac - Tláhuac", "agency_id": "METRO", "geopoint": "19.37567873,-99.18686628" }, "geometry": { "type": "Point", "coordinates": [ -99.186866, 19.375679 ] } },
{ "type": "Feature", "properties": { "id": 124, "geometry": { "type": "Point", "coordinates": [ -99.082335, 19.406970 ] }, "stop_id": 14068.0, "stop_code": null, "stop_name": "Puebla", "stop_desc": "Metro 9", "stop_lat": 19.40697045, "stop_lon": -99.08233523, "trip_heads": "Tacubaya - Pantitlán", "agency_id": "METRO", "geopoint": "19.40697045,-99.08233523" }, "geometry": { "type": "Point", "coordinates": [ -99.082335, 19.40697 ] } },
{ "type": "Feature", "properties": { "id": 125, "geometry": { "type": "Point", "coordinates": [ -99.136176, 19.468965 ] }, "stop_id": 14103.0, "stop_code": null, "stop_name": "La Raza_1_3", "stop_desc": "Metro Línea 5 correspondencia con línea 3.", "stop_lat": 19.468965, "stop_lon": -99.136176, "trip_heads": "Pantitlán - Politécnico", "agency_id": "METRO", "geopoint": "19.468965,-99.136176" }, "geometry": { "type": "Point", "coordinates": [ -99.136176, 19.468965 ] } },
{ "type": "Feature", "properties": { "id": 126, "geometry": { "type": "Point", "coordinates": [ -99.122279, 19.408944 ] }, "stop_id": 14144.0, "stop_code": null, "stop_name": "Jamaica", "stop_desc": "Metro Línea 9 correspondencia con línea 4.", "stop_lat": 19.40894369, "stop_lon": -99.12227869, "trip_heads": "Tacubaya - Pantitlán", "agency_id": "METRO", "geopoint": "19.40894369,-99.12227869" }, "geometry": { "type": "Point", "coordinates": [ -99.122279, 19.408944 ] } },
{ "type": "Feature", "properties": { "id": 127, "geometry": { "type": "Point", "coordinates": [ -99.154551, 19.425660 ] }, "stop_id": 14096.0, "stop_code": null, "stop_name": "Cuauhtémoc_1_2", "stop_desc": "Metro 1", "stop_lat": 19.42565962, "stop_lon": -99.15455103, "trip_heads": "Observatorio - Pantitlán", "agency_id": "METRO", "geopoint": "19.42565962,-99.15455103" }, "geometry": { "type": "Point", "coordinates": [ -99.154551, 19.42566 ] } },
{ "type": "Feature", "properties": { "id": 128, "geometry": { "type": "Point", "coordinates": [ -99.173702, 19.490392 ] }, "stop_id": 14133.0, "stop_code": null, "stop_name": "Ferrería", "stop_desc": "Metro 6", "stop_lat": 19.49039233, "stop_lon": -99.173702, "trip_heads": "Martín Carrera - El Rosario", "agency_id": "METRO", "geopoint": "19.49039233,-99.173702" }, "geometry": { "type": "Point", "coordinates": [ -99.173702, 19.490392 ] } },
{ "type": "Feature", "properties": { "id": 129, "geometry": { "type": "Point", "coordinates": [ -99.142631, 19.361863 ] }, "stop_id": 14086.0, "stop_code": null, "stop_name": "Ermita", "stop_desc": "Metro 2", "stop_lat": 19.36186271, "stop_lon": -99.14263129, "trip_heads": "Cuatro Caminos - Tasqueña", "agency_id": "METRO", "geopoint": "19.36186271,-99.14263129" }, "geometry": { "type": "Point", "coordinates": [ -99.142631, 19.361863 ] } },
{ "type": "Feature", "properties": { "id": 130, "geometry": { "type": "Point", "coordinates": [ -99.188036, 19.459137 ] }, "stop_id": 14112.0, "stop_code": null, "stop_name": "Tacuba_1", "stop_desc": "Metro Línea 2 correspondencia con línea 7.", "stop_lat": 19.45913691, "stop_lon": -99.18803573, "trip_heads": "Cuatro Caminos - Tasqueña", "agency_id": "METRO", "geopoint": "19.45913691,-99.18803573" }, "geometry": { "type": "Point", "coordinates": [ -99.188036, 19.459137 ] } },
{ "type": "Feature", "properties": { "id": 131, "geometry": { "type": "Point", "coordinates": [ -99.141054, 19.344006 ] }, "stop_id": 14090.0, "stop_code": null, "stop_name": "Tasqueña", "stop_desc": "Metro 2", "stop_lat": 19.34400644, "stop_lon": -99.14105415, "trip_heads": "Cuatro Caminos - Tasqueña", "agency_id": "METRO", "geopoint": "19.34400644,-99.14105415" }, "geometry": { "type": "Point", "coordinates": [ -99.141054, 19.344006 ] } },
{ "type": "Feature", "properties": { "id": 132, "geometry": { "type": "Point", "coordinates": [ -99.102838, 19.408114 ] }, "stop_id": 14176.0, "stop_code": null, "stop_name": "Velódromo", "stop_desc": "Metro 9", "stop_lat": 19.40811392, "stop_lon": -99.10283804, "trip_heads": "Tacubaya - Pantitlán", "agency_id": "METRO", "geopoint": "19.40811392,-99.10283804" }, "geometry": { "type": "Point", "coordinates": [ -99.102838, 19.408114 ] } },
{ "type": "Feature", "properties": { "id": 133, "geometry": { "type": "Point", "coordinates": [ -99.137589, 19.395029 ] }, "stop_id": 14057.0, "stop_code": null, "stop_name": "Xola_1", "stop_desc": "Metro 2", "stop_lat": 19.3950293, "stop_lon": -99.13758874, "trip_heads": "Cuatro Caminos - Tasqueña", "agency_id": "METRO", "geopoint": "19.3950293,-99.13758874" }, "geometry": { "type": "Point", "coordinates": [ -99.137589, 19.395029 ] } },
{ "type": "Feature", "properties": { "id": 134, "geometry": { "type": "Point", "coordinates": [ -99.063367, 19.345135 ] }, "stop_id": 14202.0, "stop_code": null, "stop_name": "Constitución de 1917", "stop_desc": "Metro 8", "stop_lat": 19.345135, "stop_lon": -99.063367, "trip_heads": "Garibaldi - Constitución de 1917", "agency_id": "METRO", "geopoint": "19.345135,-99.063367" }, "geometry": { "type": "Point", "coordinates": [ -99.063367, 19.345135 ] } },
{ "type": "Feature", "properties": { "id": 135, "geometry": { "type": "Point", "coordinates": [ -99.069825, 19.404046 ] }, "stop_id": 14070.0, "stop_code": null, "stop_name": "Agrícola Oriental", "stop_desc": "Metro A", "stop_lat": 19.40404596, "stop_lon": -99.06982541000001, "trip_heads": "La Paz - Pantitlán", "agency_id": "METRO", "geopoint": "19.40404596,-99.06982541" }, "geometry": { "type": "Point", "coordinates": [ -99.069825, 19.404046 ] } },
{ "type": "Feature", "properties": { "id": 136, "geometry": { "type": "Point", "coordinates": [ -99.151332, 19.361185 ] }, "stop_id": 14239.0, "stop_code": null, "stop_name": "Eje Central_1_3", "stop_desc": "Metro 12", "stop_lat": 19.36118453, "stop_lon": -99.15133238, "trip_heads": "Tláhuac - Mixcoac", "agency_id": "METRO", "geopoint": "19.36118453,-99.15133238" }, "geometry": { "type": "Point", "coordinates": [ -99.151332, 19.361185 ] } },
{ "type": "Feature", "properties": { "id": 137, "geometry": { "type": "Point", "coordinates": [ -99.176577, 19.335979 ] }, "stop_id": 14075.0, "stop_code": null, "stop_name": "Copilco", "stop_desc": "Metro 3", "stop_lat": 19.33597857, "stop_lon": -99.17657733, "trip_heads": "Indios Verdes - Universidad", "agency_id": "METRO", "geopoint": "19.33597857,-99.17657733" }, "geometry": { "type": "Point", "coordinates": [ -99.176577, 19.335979 ] } },
{ "type": "Feature", "properties": { "id": 138, "geometry": { "type": "Point", "coordinates": [ -99.107795, 19.474158 ] }, "stop_id": 14101.0, "stop_code": null, "stop_name": "Talismán_1_2", "stop_desc": "Metro 4", "stop_lat": 19.47415847, "stop_lon": -99.10779476, "trip_heads": "Martín Carrera - Santa Anita", "agency_id": "METRO", "geopoint": "19.47415847,-99.10779476" }, "geometry": { "type": "Point", "coordinates": [ -99.107795, 19.474158 ] } },
{ "type": "Feature", "properties": { "id": 139, "geometry": { "type": "Point", "coordinates": [ -99.131748, 19.476413 ] }, "stop_id": 14192.0, "stop_code": null, "stop_name": "Potrero_1_2", "stop_desc": "Metro 3", "stop_lat": 19.476413, "stop_lon": -99.131748, "trip_heads": "Indios Verdes - Universidad", "agency_id": "METRO", "geopoint": "19.476413,-99.131748" }, "geometry": { "type": "Point", "coordinates": [ -99.131748, 19.476413 ] } },
{ "type": "Feature", "properties": { "id": 140, "geometry": { "type": "Point", "coordinates": [ -99.146386, 19.490544 ] }, "stop_id": 42489.0, "stop_code": null, "stop_name": "Instituto del Petroleo", "stop_desc": "Metro Línea 6 correspondencia con línea 5.", "stop_lat": 19.49054404, "stop_lon": -99.14638638, "trip_heads": "Martín Carrera - El Rosario", "agency_id": "METRO", "geopoint": "19.49054404,-99.14638638" }, "geometry": { "type": "Point", "coordinates": [ -99.146386, 19.490544 ] } },
{ "type": "Feature", "properties": { "id": 141, "geometry": { "type": "Point", "coordinates": [ -99.153199, 19.413700 ] }, "stop_id": 14152.0, "stop_code": null, "stop_name": "Hospital General_1", "stop_desc": "Metro 3", "stop_lat": 19.41369961, "stop_lon": -99.1531992, "trip_heads": "Indios Verdes - Universidad", "agency_id": "METRO", "geopoint": "19.41369961,-99.1531992" }, "geometry": { "type": "Point", "coordinates": [ -99.153199, 19.4137 ] } },
{ "type": "Feature", "properties": { "id": 142, "geometry": { "type": "Point", "coordinates": [ -99.144788, 19.353198 ] }, "stop_id": 14089.0, "stop_code": null, "stop_name": "General Anaya", "stop_desc": "Metro 2", "stop_lat": 19.35319801, "stop_lon": -99.14478779, "trip_heads": "Cuatro Caminos - Tasqueña", "agency_id": "METRO", "geopoint": "19.35319801,-99.14478779" }, "geometry": { "type": "Point", "coordinates": [ -99.144788, 19.353198 ] } },
{ "type": "Feature", "properties": { "id": 143, "geometry": { "type": "Point", "coordinates": [ -99.170998, 19.371924 ] }, "stop_id": 14241.0, "stop_code": null, "stop_name": "Hospital 20 de Nov.", "stop_desc": "Metro 12", "stop_lat": 19.37192372, "stop_lon": -99.17099833, "trip_heads": "Tláhuac - Mixcoac", "agency_id": "METRO", "geopoint": "19.37192372,-99.17099833" }, "geometry": { "type": "Point", "coordinates": [ -99.170998, 19.371924 ] } },
{ "type": "Feature", "properties": { "id": 144, "geometry": { "type": "Point", "coordinates": [ -99.074342, 19.416169 ] }, "stop_id": 14216.0, "stop_code": null, "stop_name": "Pantitlán_1_2", "stop_desc": "Metro Línea 1 correspondencia con líneas 5 9 y A.", "stop_lat": 19.41616858, "stop_lon": -99.07434225, "trip_heads": "Observatorio - Pantitlán", "agency_id": "METRO", "geopoint": "19.41616858,-99.07434225" }, "geometry": { "type": "Point", "coordinates": [ -99.074342, 19.416169 ] } },
{ "type": "Feature", "properties": { "id": 145, "geometry": { "type": "Point", "coordinates": [ -99.139874, 19.379383 ] }, "stop_id": 14093.0, "stop_code": null, "stop_name": "Nativitas", "stop_desc": "Metro 2", "stop_lat": 19.37938304, "stop_lon": -99.13987398, "trip_heads": "Cuatro Caminos - Tasqueña", "agency_id": "METRO", "geopoint": "19.37938304,-99.13987398" }, "geometry": { "type": "Point", "coordinates": [ -99.139874, 19.379383 ] } },
{ "type": "Feature", "properties": { "id": 146, "geometry": { "type": "Point", "coordinates": [ -99.119886, 19.458682 ] }, "stop_id": 14140.0, "stop_code": null, "stop_name": "Valle Gómez", "stop_desc": "Metro 5", "stop_lat": 19.45868169, "stop_lon": -99.11988616, "trip_heads": "Pantitlán - Politécnico", "agency_id": "METRO", "geopoint": "19.45868169,-99.11988616" }, "geometry": { "type": "Point", "coordinates": [ -99.119886, 19.458682 ] } },
{ "type": "Feature", "properties": { "id": 147, "geometry": { "type": "Point", "coordinates": [ -99.180536, 19.346517 ] }, "stop_id": 14082.0, "stop_code": null, "stop_name": "Miguel Ángel de Quevedo", "stop_desc": "Metro 3", "stop_lat": 19.34651696, "stop_lon": -99.18053627, "trip_heads": "Indios Verdes - Universidad", "agency_id": "METRO", "geopoint": "19.34651696,-99.18053627" }, "geometry": { "type": "Point", "coordinates": [ -99.180536, 19.346517 ] } },
{ "type": "Feature", "properties": { "id": 148, "geometry": { "type": "Point", "coordinates": [ -99.150238, 19.419467 ] }, "stop_id": 14151.0, "stop_code": null, "stop_name": "Niños Héroes_1", "stop_desc": "Metro 3", "stop_lat": 19.41946724, "stop_lon": -99.15023804, "trip_heads": "Indios Verdes - Universidad", "agency_id": "METRO", "geopoint": "19.41946724,-99.15023804" }, "geometry": { "type": "Point", "coordinates": [ -99.150238, 19.419467 ] } },
{ "type": "Feature", "properties": { "id": 149, "geometry": { "type": "Point", "coordinates": [ -99.131076, 19.443001 ] }, "stop_id": 14171.0, "stop_code": null, "stop_name": "Lagunilla", "stop_desc": "Metro B", "stop_lat": 19.44300109, "stop_lon": -99.13107634000001, "trip_heads": "Buenavista - Ciudad Azteca", "agency_id": "METRO", "geopoint": "19.44300109,-99.13107634" }, "geometry": { "type": "Point", "coordinates": [ -99.131076, 19.443001 ] } },
{ "type": "Feature", "properties": { "id": 150, "geometry": { "type": "Point", "coordinates": [ -99.121914, 19.357449 ] }, "stop_id": 14238.0, "stop_code": null, "stop_name": "Mexicaltzingo", "stop_desc": "Metro 12", "stop_lat": 19.35744944, "stop_lon": -99.12191391, "trip_heads": "Tláhuac - Mixcoac", "agency_id": "METRO", "geopoint": "19.35744944,-99.12191391" }, "geometry": { "type": "Point", "coordinates": [ -99.121914, 19.357449 ] } },
{ "type": "Feature", "properties": { "id": 151, "geometry": { "type": "Point", "coordinates": [ -99.148806, 19.499964 ] }, "stop_id": 14188.0, "stop_code": null, "stop_name": "Politécnico", "stop_desc": "Metro 5", "stop_lat": 19.499964, "stop_lon": -99.148806, "trip_heads": "Pantitlán - Politécnico", "agency_id": "METRO", "geopoint": "19.499964,-99.148806" }, "geometry": { "type": "Point", "coordinates": [ -99.148806, 19.499964 ] } },
{ "type": "Feature", "properties": { "id": 152, "geometry": { "type": "Point", "coordinates": [ -99.191608, 19.445530 ] }, "stop_id": 14113.0, "stop_code": null, "stop_name": "San Joaquín", "stop_desc": "Metro 7", "stop_lat": 19.44553033, "stop_lon": -99.19160843, "trip_heads": "Barranca del Muerto - El Rosario", "agency_id": "METRO", "geopoint": "19.44553033,-99.19160843" }, "geometry": { "type": "Point", "coordinates": [ -99.191608, 19.44553 ] } },
{ "type": "Feature", "properties": { "id": 153, "geometry": { "type": "Point", "coordinates": [ -99.046512, 19.390728 ] }, "stop_id": 14200.0, "stop_code": null, "stop_name": "Tepalcates_1", "stop_desc": "Metro A", "stop_lat": 19.39072824, "stop_lon": -99.04651165, "trip_heads": "La Paz - Pantitlán", "agency_id": "METRO", "geopoint": "19.39072824,-99.04651165" }, "geometry": { "type": "Point", "coordinates": [ -99.046512, 19.390728 ] } },
{ "type": "Feature", "properties": { "id": 154, "geometry": { "type": "Point", "coordinates": [ -99.131879, 19.432602 ] }, "stop_id": 14136.0, "stop_code": null, "stop_name": "Zócalo", "stop_desc": "Metro 2", "stop_lat": 19.432602, "stop_lon": -99.131879, "trip_heads": "Cuatro Caminos - Tasqueña", "agency_id": "METRO", "geopoint": "19.432602,-99.131879" }, "geometry": { "type": "Point", "coordinates": [ -99.131879, 19.432602 ] } },
{ "type": "Feature", "properties": { "id": 155, "geometry": { "type": "Point", "coordinates": [ -99.144552, 19.489836 ] }, "stop_id": 14194.0, "stop_code": null, "stop_name": "Instituto del Petróleo_1", "stop_desc": "Metro Línea 6 correspondencia con línea 5.", "stop_lat": 19.48983606, "stop_lon": -99.14455175000001, "trip_heads": "Pantitlán - Politécnico", "agency_id": "METRO", "geopoint": "19.48983606,-99.14455175" }, "geometry": { "type": "Point", "coordinates": [ -99.144552, 19.489836 ] } },
{ "type": "Feature", "properties": { "id": 156, "geometry": { "type": "Point", "coordinates": [ -99.146816, 19.436749 ] }, "stop_id": 14168.0, "stop_code": null, "stop_name": "Hidalgo_1_3", "stop_desc": "Metro Línea 3 correspondencia con línea 2.", "stop_lat": 19.43674867, "stop_lon": -99.14681554000001, "trip_heads": "Indios Verdes - Universidad", "agency_id": "METRO", "geopoint": "19.43674867,-99.14681554" }, "geometry": { "type": "Point", "coordinates": [ -99.146816, 19.436749 ] } },
{ "type": "Feature", "properties": { "id": 157, "geometry": { "type": "Point", "coordinates": [ -99.112086, 19.388092 ] }, "stop_id": 14094.0, "stop_code": null, "stop_name": "Iztacalco_1", "stop_desc": "Metro 8", "stop_lat": 19.388092, "stop_lon": -99.112086, "trip_heads": "Garibaldi - Constitución de 1917", "agency_id": "METRO", "geopoint": "19.388092,-99.112086" }, "geometry": { "type": "Point", "coordinates": [ -99.112086, 19.388092 ] } },
{ "type": "Feature", "properties": { "id": 158, "geometry": { "type": "Point", "coordinates": [ -99.048743, 19.484987 ] }, "stop_id": 14223.0, "stop_code": null, "stop_name": "Impulsora", "stop_desc": "Metro B", "stop_lat": 19.484987, "stop_lon": -99.048743, "trip_heads": "Buenavista - Ciudad Azteca", "agency_id": "METRO", "geopoint": "19.484987,-99.048743" }, "geometry": { "type": "Point", "coordinates": [ -99.048743, 19.484987 ] } },
{ "type": "Feature", "properties": { "id": 159, "geometry": { "type": "Point", "coordinates": [ -99.119897, 19.429100 ] }, "stop_id": 14134.0, "stop_code": null, "stop_name": "Candelaria", "stop_desc": "Metro Línea 1 correspondencia con línea 4.", "stop_lat": 19.42909974, "stop_lon": -99.11989689000001, "trip_heads": "Observatorio - Pantitlán", "agency_id": "METRO", "geopoint": "19.42909974,-99.11989689" }, "geometry": { "type": "Point", "coordinates": [ -99.119897, 19.4291 ] } },
{ "type": "Feature", "properties": { "id": 160, "geometry": { "type": "Point", "coordinates": [ -99.188958, 19.361488 ] }, "stop_id": 14080.0, "stop_code": null, "stop_name": "Barranca del Muerto", "stop_desc": "Metro 7", "stop_lat": 19.3614882, "stop_lon": -99.18895841, "trip_heads": "Barranca del Muerto - El Rosario", "agency_id": "METRO", "geopoint": "19.3614882,-99.18895841" }, "geometry": { "type": "Point", "coordinates": [ -99.188958, 19.361488 ] } },
{ "type": "Feature", "properties": { "id": 161, "geometry": { "type": "Point", "coordinates": [ -99.125433, 19.484051 ] }, "stop_id": 14187.0, "stop_code": null, "stop_name": "Deportivo 18 de Marzo_1_3", "stop_desc": "Metro Línea 3 correspondencia con línea 6.", "stop_lat": 19.4840507, "stop_lon": -99.12543297000001, "trip_heads": "Indios Verdes - Universidad", "agency_id": "METRO", "geopoint": "19.4840507,-99.12543297" }, "geometry": { "type": "Point", "coordinates": [ -99.125433, 19.484051 ] } },
{ "type": "Feature", "properties": { "id": 162, "geometry": { "type": "Point", "coordinates": [ -99.135422, 19.408913 ] }, "stop_id": 14159.0, "stop_code": null, "stop_name": "Chabacano_1_2", "stop_desc": "Metro Línea 2 correspondencia con línea 8 y línea 9.", "stop_lat": 19.40891333, "stop_lon": -99.13542151, "trip_heads": "Cuatro Caminos - Tasqueña", "agency_id": "METRO", "geopoint": "19.40891333,-99.13542151" }, "geometry": { "type": "Point", "coordinates": [ -99.135422, 19.408913 ] } },
{ "type": "Feature", "properties": { "id": 163, "geometry": { "type": "Point", "coordinates": [ -99.113481, 19.455485 ] }, "stop_id": 15154.0, "stop_code": null, "stop_name": "Consulado_1", "stop_desc": "Metro Línea 5 correspondencia con línea 4.", "stop_lat": 19.455485, "stop_lon": -99.11348104, "trip_heads": "Pantitlán - Politécnico", "agency_id": "METRO", "geopoint": "19.455485,-99.11348104" }, "geometry": { "type": "Point", "coordinates": [ -99.113481, 19.455485 ] } },
{ "type": "Feature", "properties": { "id": 164, "geometry": { "type": "Point", "coordinates": [ -99.069278, 19.458075 ] }, "stop_id": 14219.0, "stop_code": null, "stop_name": "Bosque de Aragón", "stop_desc": "Metro B", "stop_lat": 19.45807473, "stop_lon": -99.06927824, "trip_heads": "Buenavista - Ciudad Azteca", "agency_id": "METRO", "geopoint": "19.45807473,-99.06927824" }, "geometry": { "type": "Point", "coordinates": [ -99.069278, 19.458075 ] } },
{ "type": "Feature", "properties": { "id": 165, "geometry": { "type": "Point", "coordinates": [ -99.136709, 19.435474 ] }, "stop_id": 14163.0, "stop_code": null, "stop_name": "Allende", "stop_desc": "Metro 2", "stop_lat": 19.43547387, "stop_lon": -99.13670897, "trip_heads": "Cuatro Caminos - Tasqueña", "agency_id": "METRO", "geopoint": "19.43547387,-99.13670897" }, "geometry": { "type": "Point", "coordinates": [ -99.136709, 19.435474 ] } },
{ "type": "Feature", "properties": { "id": 166, "geometry": { "type": "Point", "coordinates": [ -99.132686, 19.425953 ] }, "stop_id": 14161.0, "stop_code": null, "stop_name": "Pino Suárez_1_2", "stop_desc": "Metro Línea 1 correspondencia con línea 2.", "stop_lat": 19.42595305, "stop_lon": -99.13268566000001, "trip_heads": "Observatorio - Pantitlán", "agency_id": "METRO", "geopoint": "19.42595305,-99.13268566" }, "geometry": { "type": "Point", "coordinates": [ -99.132686, 19.425953 ] } },
{ "type": "Feature", "properties": { "id": 167, "geometry": { "type": "Point", "coordinates": [ -99.138629, 19.387469 ] }, "stop_id": 14092.0, "stop_code": null, "stop_name": "Villa de Cortés", "stop_desc": "Metro 2", "stop_lat": 19.38746949, "stop_lon": -99.13862944, "trip_heads": "Cuatro Caminos - Tasqueña", "agency_id": "METRO", "geopoint": "19.38746949,-99.13862944" }, "geometry": { "type": "Point", "coordinates": [ -99.138629, 19.387469 ] } },
{ "type": "Feature", "properties": { "id": 168, "geometry": { "type": "Point", "coordinates": [ -99.136634, 19.400747 ] }, "stop_id": 14056.0, "stop_code": null, "stop_name": "Viaducto_1", "stop_desc": "Metro 2", "stop_lat": 19.40074699, "stop_lon": -99.13663387, "trip_heads": "Cuatro Caminos - Tasqueña", "agency_id": "METRO", "geopoint": "19.40074699,-99.13663387" }, "geometry": { "type": "Point", "coordinates": [ -99.136634, 19.400747 ] } },
{ "type": "Feature", "properties": { "id": 169, "geometry": { "type": "Point", "coordinates": [ -99.154798, 19.490311 ] }, "stop_id": 14106.0, "stop_code": null, "stop_name": "Vallejo", "stop_desc": "Metro 6", "stop_lat": 19.49031142, "stop_lon": -99.15479779, "trip_heads": "Martín Carrera - El Rosario", "agency_id": "METRO", "geopoint": "19.49031142,-99.15479779" }, "geometry": { "type": "Point", "coordinates": [ -99.154798, 19.490311 ] } },
{ "type": "Feature", "properties": { "id": 170, "geometry": { "type": "Point", "coordinates": [ -99.117901, 19.439733 ] }, "stop_id": 14182.0, "stop_code": null, "stop_name": "Morelos_1_3", "stop_desc": "Metro Línea 4 correspondencia con línea B.", "stop_lat": 19.43973327, "stop_lon": -99.11790133, "trip_heads": "Martín Carrera - Santa Anita", "agency_id": "METRO", "geopoint": "19.43973327,-99.11790133" }, "geometry": { "type": "Point", "coordinates": [ -99.117901, 19.439733 ] } },
{ "type": "Feature", "properties": { "id": 171, "geometry": { "type": "Point", "coordinates": [ -99.122032, 19.410148 ] }, "stop_id": 14175.0, "stop_code": null, "stop_name": "Jamaica_1", "stop_desc": "Metro Línea 4 correspondencia con línea 9.", "stop_lat": 19.41014786, "stop_lon": -99.12203193000001, "trip_heads": "Martín Carrera - Santa Anita", "agency_id": "METRO", "geopoint": "19.41014786,-99.12203193" }, "geometry": { "type": "Point", "coordinates": [ -99.122032, 19.410148 ] } },
{ "type": "Feature", "properties": { "id": 172, "geometry": { "type": "Point", "coordinates": [ -99.146354, 19.445227 ] }, "stop_id": 14166.0, "stop_code": null, "stop_name": "Guerrero_1_4", "stop_desc": "Metro Línea B correspondencia con línea 3.", "stop_lat": 19.44522682, "stop_lon": -99.1463542, "trip_heads": "Buenavista - Ciudad Azteca", "agency_id": "METRO", "geopoint": "19.44522682,-99.1463542" }, "geometry": { "type": "Point", "coordinates": [ -99.146354, 19.445227 ] } },
{ "type": "Feature", "properties": { "id": 173, "geometry": { "type": "Point", "coordinates": [ -99.086831, 19.445723 ] }, "stop_id": 14072.0, "stop_code": null, "stop_name": "Oceanía_1", "stop_desc": "Metro Línea B correspondencia con línea 5.", "stop_lat": 19.44572255, "stop_lon": -99.08683062, "trip_heads": "Buenavista - Ciudad Azteca", "agency_id": "METRO", "geopoint": "19.44572255,-99.08683062" }, "geometry": { "type": "Point", "coordinates": [ -99.086831, 19.445723 ] } },
{ "type": "Feature", "properties": { "id": 174, "geometry": { "type": "Point", "coordinates": [ -99.143350, 19.420499 ] }, "stop_id": 14153.0, "stop_code": null, "stop_name": "Doctores", "stop_desc": "Metro 8", "stop_lat": 19.42049932, "stop_lon": -99.14335012, "trip_heads": "Garibaldi - Constitución de 1917", "agency_id": "METRO", "geopoint": "19.42049932,-99.14335012" }, "geometry": { "type": "Point", "coordinates": [ -99.14335, 19.420499 ] } },
{ "type": "Feature", "properties": { "id": 175, "geometry": { "type": "Point", "coordinates": [ -99.112859, 19.408205 ] }, "stop_id": 14177.0, "stop_code": null, "stop_name": "Mixhuca", "stop_desc": "Metro 9", "stop_lat": 19.40820499, "stop_lon": -99.11285877, "trip_heads": "Tacubaya - Pantitlán", "agency_id": "METRO", "geopoint": "19.40820499,-99.11285877" }, "geometry": { "type": "Point", "coordinates": [ -99.112859, 19.408205 ] } },
{ "type": "Feature", "properties": { "id": 176, "geometry": { "type": "Point", "coordinates": [ -98.976710, 19.358775 ] }, "stop_id": 14206.0, "stop_code": null, "stop_name": "Los Reyes", "stop_desc": "Metro A", "stop_lat": 19.35877546, "stop_lon": -98.97670984, "trip_heads": "La Paz - Pantitlán", "agency_id": "METRO", "geopoint": "19.35877546,-98.97670984" }, "geometry": { "type": "Point", "coordinates": [ -98.97671, 19.358775 ] } },
{ "type": "Feature", "properties": { "id": 177, "geometry": { "type": "Point", "coordinates": [ -99.165409, 19.370547 ] }, "stop_id": 42432.0, "stop_code": null, "stop_name": "Zapata_1", "stop_desc": "Metro Línea 12 correspondencia con línea 3.", "stop_lat": 19.3705472, "stop_lon": -99.16540861, "trip_heads": "Tláhuac - Mixcoac", "agency_id": "METRO", "geopoint": "19.3705472,-99.16540861" }, "geometry": { "type": "Point", "coordinates": [ -99.165409, 19.370547 ] } },
{ "type": "Feature", "properties": { "id": 178, "geometry": { "type": "Point", "coordinates": [ -99.155313, 19.407497 ] }, "stop_id": 14058.0, "stop_code": null, "stop_name": "Centro Médico_1", "stop_desc": "Metro Línea 3 correspondencia con línea 9.", "stop_lat": 19.40749665, "stop_lon": -99.15531278, "trip_heads": "Indios Verdes - Universidad", "agency_id": "METRO", "geopoint": "19.40749665,-99.15531278" }, "geometry": { "type": "Point", "coordinates": [ -99.155313, 19.407497 ] } },
{ "type": "Feature", "properties": { "id": 179, "geometry": { "type": "Point", "coordinates": [ -99.085872, 19.355601 ] }, "stop_id": 14203.0, "stop_code": null, "stop_name": "Cerro de la Estrella", "stop_desc": "Metro 8", "stop_lat": 19.355601, "stop_lon": -99.085872, "trip_heads": "Garibaldi - Constitución de 1917", "agency_id": "METRO", "geopoint": "19.355601,-99.085872" }, "geometry": { "type": "Point", "coordinates": [ -99.085872, 19.355601 ] } },
{ "type": "Feature", "properties": { "id": 180, "geometry": { "type": "Point", "coordinates": [ -99.111754, 19.464508 ] }, "stop_id": 14102.0, "stop_code": null, "stop_name": "Bondojito_1", "stop_desc": "Metro 4", "stop_lat": 19.46450842, "stop_lon": -99.1117537, "trip_heads": "Martín Carrera - Santa Anita", "agency_id": "METRO", "geopoint": "19.46450842,-99.1117537" }, "geometry": { "type": "Point", "coordinates": [ -99.111754, 19.464508 ] } },
{ "type": "Feature", "properties": { "id": 181, "geometry": { "type": "Point", "coordinates": [ -99.059697, 19.398217 ] }, "stop_id": 14071.0, "stop_code": null, "stop_name": "Canal de San Juan_1_3", "stop_desc": "Metro A", "stop_lat": 19.39821706, "stop_lon": -99.05969739, "trip_heads": "La Paz - Pantitlán", "agency_id": "METRO", "geopoint": "19.39821706,-99.05969739" }, "geometry": { "type": "Point", "coordinates": [ -99.059697, 19.398217 ] } },
{ "type": "Feature", "properties": { "id": 182, "geometry": { "type": "Point", "coordinates": [ -99.075050, 19.415288 ] }, "stop_id": 14214.0, "stop_code": null, "stop_name": "Pantitlán", "stop_desc": "Metro Línea 5 correspondencia con líneas 1 9 y A.", "stop_lat": 19.41528826, "stop_lon": -99.07505035, "trip_heads": "Pantitlán - Politécnico", "agency_id": "METRO", "geopoint": "19.41528826,-99.07505035" }, "geometry": { "type": "Point", "coordinates": [ -99.07505, 19.415288 ] } },
{ "type": "Feature", "properties": { "id": 183, "geometry": { "type": "Point", "coordinates": [ -99.102591, 19.327231 ] }, "stop_id": 14236.0, "stop_code": null, "stop_name": "San Andrés Tomatlán", "stop_desc": "Metro 12", "stop_lat": 19.3272315, "stop_lon": -99.10259128, "trip_heads": "Tláhuac - Mixcoac", "agency_id": "METRO", "geopoint": "19.3272315,-99.10259128" }, "geometry": { "type": "Point", "coordinates": [ -99.102591, 19.327231 ] } },
{ "type": "Feature", "properties": { "id": 184, "geometry": { "type": "Point", "coordinates": [ -99.135489, 19.408513 ] }, "stop_id": 14145.0, "stop_code": null, "stop_name": "Chabacano", "stop_desc": "Metro Línea 9 correspondencia con línea 2 y línea 8.", "stop_lat": 19.408513, "stop_lon": -99.135489, "trip_heads": "Tacubaya - Pantitlán", "agency_id": "METRO", "geopoint": "19.408513,-99.135489" }, "geometry": { "type": "Point", "coordinates": [ -99.135489, 19.408513 ] } },
{ "type": "Feature", "properties": { "id": 185, "geometry": { "type": "Point", "coordinates": [ -99.105445, 19.451125 ] }, "stop_id": 14184.0, "stop_code": null, "stop_name": "Eduardo Molina_1", "stop_desc": "Metro 5", "stop_lat": 19.45112485, "stop_lon": -99.10544515, "trip_heads": "Pantitlán - Politécnico", "agency_id": "METRO", "geopoint": "19.45112485,-99.10544515" }, "geometry": { "type": "Point", "coordinates": [ -99.105445, 19.451125 ] } },
{ "type": "Feature", "properties": { "id": 186, "geometry": { "type": "Point", "coordinates": [ -99.091358, 19.408114 ] }, "stop_id": 14069.0, "stop_code": null, "stop_name": "Ciudad Deportiva", "stop_desc": "Metro 9", "stop_lat": 19.40811392, "stop_lon": -99.09135818, "trip_heads": "Tacubaya - Pantitlán", "agency_id": "METRO", "geopoint": "19.40811392,-99.09135818" }, "geometry": { "type": "Point", "coordinates": [ -99.091358, 19.408114 ] } },
{ "type": "Feature", "properties": { "id": 187, "geometry": { "type": "Point", "coordinates": [ -99.214643, 19.458454 ] }, "stop_id": 14117.0, "stop_code": null, "stop_name": "Cuatro Caminos", "stop_desc": "Metro 2", "stop_lat": 19.458454, "stop_lon": -99.214643, "trip_heads": "Cuatro Caminos - Tasqueña", "agency_id": "METRO", "geopoint": "19.458454,-99.214643" }, "geometry": { "type": "Point", "coordinates": [ -99.214643, 19.458454 ] } },
{ "type": "Feature", "properties": { "id": 188, "geometry": { "type": "Point", "coordinates": [ -99.035794, 19.384595 ] }, "stop_id": 14198.0, "stop_code": null, "stop_name": "Guelatao", "stop_desc": "Metro A", "stop_lat": 19.38459525, "stop_lon": -99.03579354, "trip_heads": "La Paz - Pantitlán", "agency_id": "METRO", "geopoint": "19.38459525,-99.03579354" }, "geometry": { "type": "Point", "coordinates": [ -99.035794, 19.384595 ] } },
{ "type": "Feature", "properties": { "id": 189, "geometry": { "type": "Point", "coordinates": [ -99.105992, 19.483767 ] }, "stop_id": 14196.0, "stop_code": null, "stop_name": "Martín Carrera_1", "stop_desc": "Metro Línea 4 correspondencia con línea 6.", "stop_lat": 19.4837675, "stop_lon": -99.10599232, "trip_heads": "Martín Carrera - Santa Anita", "agency_id": "METRO", "geopoint": "19.4837675,-99.10599232" }, "geometry": { "type": "Point", "coordinates": [ -99.105992, 19.483767 ] } },
{ "type": "Feature", "properties": { "id": 190, "geometry": { "type": "Point", "coordinates": [ -99.119330, 19.438426 ] }, "stop_id": 14051.0, "stop_code": null, "stop_name": "Morelos_1_2", "stop_desc": "Metro Línea B correspondencia con línea 4.", "stop_lat": 19.438426, "stop_lon": -99.11933, "trip_heads": "Buenavista - Ciudad Azteca", "agency_id": "METRO", "geopoint": "19.438426,-99.11933" }, "geometry": { "type": "Point", "coordinates": [ -99.11933, 19.438426 ] } },
{ "type": "Feature", "properties": { "id": 191, "geometry": { "type": "Point", "coordinates": [ -99.163252, 19.423596 ] }, "stop_id": 14097.0, "stop_code": null, "stop_name": "Insurgentes_1_5", "stop_desc": "Metro 1", "stop_lat": 19.42359552, "stop_lon": -99.16325212, "trip_heads": "Observatorio - Pantitlán", "agency_id": "METRO", "geopoint": "19.42359552,-99.16325212" }, "geometry": { "type": "Point", "coordinates": [ -99.163252, 19.423596 ] } },
{ "type": "Feature", "properties": { "id": 192, "geometry": { "type": "Point", "coordinates": [ -99.134349, 19.487581 ] }, "stop_id": 14195.0, "stop_code": null, "stop_name": "Lindavista", "stop_desc": "Metro 6", "stop_lat": 19.4875806, "stop_lon": -99.13434863000001, "trip_heads": "Martín Carrera - El Rosario", "agency_id": "METRO", "geopoint": "19.4875806,-99.13434863" }, "geometry": { "type": "Point", "coordinates": [ -99.134349, 19.487581 ] } },
{ "type": "Feature", "properties": { "id": 193, "geometry": { "type": "Point", "coordinates": [ -99.054375, 19.472534 ] }, "stop_id": 14210.0, "stop_code": null, "stop_name": "Nezahualcóyotl", "stop_desc": "Metro B", "stop_lat": 19.472534, "stop_lon": -99.054375, "trip_heads": "Buenavista - Ciudad Azteca", "agency_id": "METRO", "geopoint": "19.472534,-99.054375" }, "geometry": { "type": "Point", "coordinates": [ -99.054375, 19.472534 ] } },
{ "type": "Feature", "properties": { "id": 194, "geometry": { "type": "Point", "coordinates": [ -99.109803, 19.426271 ] }, "stop_id": 14173.0, "stop_code": null, "stop_name": "Moctezuma_1", "stop_desc": "Metro 1", "stop_lat": 19.426271, "stop_lon": -99.109803, "trip_heads": "Observatorio - Pantitlán", "agency_id": "METRO", "geopoint": "19.426271,-99.109803" }, "geometry": { "type": "Point", "coordinates": [ -99.109803, 19.426271 ] } }
]
}
